[{"id":"56963","days":[{"runs":"Y","day-code":"SUN"},{"runs":"Y","day-code":"MON"},{"runs":"Y","day-code":"TUE"},{"runs":"Y","day-code":"WED"},{"runs":"Y","day-code":"THU"},{"runs":"Y","day-code":"FRI"},{"runs":"Y","day-code":"SAT"}],"classes":[{"available":"-","class-code":"SL"},{"available":"-","class-code":"2S"},{"available":"-","class-code":"3A"},{"available":"-","class-code":"2A"},{"available":"-","class-code":"1A"},{"available":"-","class-code":"FC"},{"available":"-","class-code":"3E"},{"available":"-","class-code":"CC"}],"name":"QLM VSG PASSENGER","route":[{"no":1,"schdep":"12:20","fullname":"KULEM","day":1,"scharr":"SRC","distance":0,"lng":74.2437934,"route":1,"code":"QLM","state":"Goa 403410","lat":15.3333646,"halt":0},{"no":2,"schdep":"12:30","fullname":"KALEEM","day":1,"scharr":"12:29","distance":8,"lng":74.18459299999999,"route":1,"code":"KM","state":"Goa 403410","lat":15.291932,"halt":1},{"no":3,"schdep":"12:45","fullname":"SANVERDAM CHUCH","day":1,"scharr":"12:44","distance":18,"lng":74.1083965,"route":1,"code":"SVM","state":"Goa 403706","lat":15.2642982,"halt":1},{"no":4,"schdep":"12:50","fullname":"CHANDAR","day":1,"scharr":"12:49","distance":25,"lng":74.0479362,"route":1,"code":"CNR","state":"Goa 403714","lat":15.2647201,"halt":1},{"no":5,"schdep":"13:00","fullname":"SANJUJE DA AREY","day":1,"scharr":"12:59","distance":28,"lng":74.010629,"route":1,"code":"SJDA","state":"Goa 403714","lat":15.265708,"halt":0},{"no":6,"schdep":"13:15","fullname":"MADGAON","day":1,"scharr":"13:10","distance":34,"lng":73.9702477,"route":1,"code":"MAO","state":"Goa 403601","lat":15.2676603,"halt":5},{"no":7,"schdep":"13:21","fullname":"SURAVALI","day":1,"scharr":"13:20","distance":40,"lng":73.9389204,"route":1,"code":"SRVX","state":"Goa 403708","lat":15.2918746,"halt":1},{"no":8,"schdep":"13:28","fullname":"MAJORDA","day":1,"scharr":"13:27","distance":44,"lng":73.9219459,"route":1,"code":"MJO","state":"Goa 403713","lat":15.3136968,"halt":1},{"no":9,"schdep":"13:32","fullname":"CANSAULIM","day":1,"scharr":"13:31","distance":49,"lng":73.8975396,"route":1,"code":"CSM","state":"Goa 403712","lat":15.3449439,"halt":1},{"no":10,"schdep":"13:38","fullname":"SANKVAL","day":1,"scharr":"13:37","distance":53,"lng":73.91479480000001,"route":1,"code":"SKVL","state":"Goa 403110","lat":15.4979256,"halt":1},{"no":11,"schdep":"13:42","fullname":"DABOLIM","day":1,"scharr":"13:41","distance":56,"lng":73.8503382,"route":1,"code":"DBM","state":"Goa 403801","lat":15.3883867,"halt":1},{"no":12,"schdep":"DSTN","fullname":"VASCO DA GAMA","day":1,"scharr":"14:05","distance":61,"lng":73.81226869999999,"route":1,"code":"VSG","state":"Goa 403802","lat":15.3963801,"halt":0}],"starts":{"no":1,"schdep":"12:20","fullname":"KULEM","day":1,"scharr":"SRC","distance":0,"lng":74.2437934,"route":1,"code":"QLM","state":"Goa 403410","lat":15.3333646,"halt":0}},{"id":"56926","days":[{"runs":"Y","day-code":"SUN"},{"runs":"Y","day-code":"MON"},{"runs":"Y","day-code":"TUE"},{"runs":"Y","day-code":"WED"},{"runs":"Y","day-code":"THU"},{"runs":"Y","day-code":"FRI"},{"runs":"Y","day-code":"SAT"}],"classes":[{"available":"-","class-code":"SL"},{"available":"-","class-code":"2S"},{"available":"-","class-code":"3A"},{"available":"-","class-code":"2A"},{"available":"-","class-code":"1A"},{"available":"-","class-code":"FC"},{"available":"-","class-code":"3E"},{"available":"-","class-code":"CC"}],"name":"TK SBC PASSENGER","route":[{"no":1,"schdep":"08:15","fullname":"TUMKUR","day":1,"scharr":"SRC","distance":0,"lng":77.1019481,"route":1,"code":"TK","state":"Karnataka 572102","lat":13.3338102,"halt":0},{"no":2,"schdep":"08:25","fullname":"KYATSANDRA","day":1,"scharr":"08:24","distance":5,"lng":77.1477395,"route":1,"code":"KIAT","state":"Karnataka 572104","lat":13.3157047,"halt":1},{"no":3,"schdep":"08:50","fullname":"DODBELE","day":1,"scharr":"08:49","distance":32,"lng":77.3515821,"route":1,"code":"DBL","state":"Karnataka 562132","lat":13.2166655,"halt":1},{"no":4,"schdep":"09:10","fullname":"CHIK BANAVAR","day":1,"scharr":"09:09","distance":55,"lng":77.5055569,"route":1,"code":"BAW","state":"Karnataka 560090","lat":13.0747598,"halt":1},{"no":5,"schdep":"09:20","fullname":"YASVANTPUR JN","day":1,"scharr":"09:18","distance":64,"lng":77.5507379,"route":1,"code":"YPR","state":"Karnataka 560022","lat":13.0237563,"halt":2},{"no":6,"schdep":"DSTN","fullname":"BANGALORE CY JN","day":1,"scharr":"09:50","distance":69,"lng":77.60989,"route":1,"code":"SBC","state":"Karnataka 560076","lat":12.88234,"halt":0}],"starts":{"no":1,"schdep":"08:15","fullname":"TUMKUR","day":1,"scharr":"SRC","distance":0,"lng":77.1019481,"route":1,"code":"TK","state":"Karnataka 572102","lat":13.3338102,"halt":0}},{"id":"56964","days":[{"runs":"Y","day-code":"SUN"},{"runs":"Y","day-code":"MON"},{"runs":"Y","day-code":"TUE"},{"runs":"Y","day-code":"WED"},{"runs":"Y","day-code":"THU"},{"runs":"Y","day-code":"FRI"},{"runs":"Y","day-code":"SAT"}],"classes":[{"available":"-","class-code":"SL"},{"available":"-","class-code":"2S"},{"available":"-","class-code":"3A"},{"available":"-","class-code":"2A"},{"available":"-","class-code":"1A"},{"available":"-","class-code":"FC"},{"available":"-","class-code":"3E"},{"available":"-","class-code":"CC"}],"name":"VSG QLM PASSENGER","route":[{"no":1,"schdep":"13:10","fullname":"VASCO DA GAMA","day":1,"scharr":"SRC","distance":0,"lng":73.81226869999999,"route":1,"code":"VSG","state":"Goa 403802","lat":15.3963801,"halt":0},{"no":2,"schdep":"13:15","fullname":"DABOLIM","day":1,"scharr":"13:13","distance":5,"lng":73.8503382,"route":1,"code":"DBM","state":"Goa 403801","lat":15.3883867,"halt":2},{"no":3,"schdep":"13:20","fullname":"SANKVAL","day":1,"scharr":"13:19","distance":8,"lng":73.91479480000001,"route":1,"code":"SKVL","state":"Goa 403110","lat":15.4979256,"halt":1},{"no":4,"schdep":"13:25","fullname":"CANSAULIM","day":1,"scharr":"13:24","distance":12,"lng":73.8975396,"route":1,"code":"CSM","state":"Goa 403712","lat":15.3449439,"halt":1},{"no":5,"schdep":"13:33","fullname":"MAJORDA","day":1,"scharr":"13:32","distance":17,"lng":73.9219459,"route":1,"code":"MJO","state":"Goa 403713","lat":15.3136968,"halt":1},{"no":6,"schdep":"13:38","fullname":"SURAVALI","day":1,"scharr":"13:37","distance":21,"lng":73.9389204,"route":1,"code":"SRVX","state":"Goa 403708","lat":15.2918746,"halt":1},{"no":7,"schdep":"13:47","fullname":"MADGAON","day":1,"scharr":"13:46","distance":27,"lng":73.9702477,"route":1,"code":"MAO","state":"Goa 403601","lat":15.2676603,"halt":1},{"no":8,"schdep":"13:52","fullname":"SANJUJE DA AREY","day":1,"scharr":"13:51","distance":33,"lng":74.010629,"route":1,"code":"SJDA","state":"Goa 403714","lat":15.265708,"halt":1},{"no":9,"schdep":"14:00","fullname":"CHANDAR","day":1,"scharr":"13:59","distance":36,"lng":74.0479362,"route":1,"code":"CNR","state":"Goa 403714","lat":15.2647201,"halt":0},{"no":10,"schdep":"14:15","fullname":"SANVERDAM CHUCH","day":1,"scharr":"14:13","distance":43,"lng":74.1083965,"route":1,"code":"SVM","state":"Goa 403706","lat":15.2642982,"halt":2},{"no":11,"schdep":"14:31","fullname":"KALEEM","day":1,"scharr":"14:28","distance":53,"lng":74.18459299999999,"route":1,"code":"KM","state":"Goa 403410","lat":15.291932,"halt":3},{"no":12,"schdep":"DSTN","fullname":"KULEM","day":1,"scharr":"15:00","distance":61,"lng":74.2437934,"route":1,"code":"QLM","state":"Goa 403410","lat":15.3333646,"halt":0}],"starts":{"no":1,"schdep":"13:10","fullname":"VASCO DA GAMA","day":1,"scharr":"SRC","distance":0,"lng":73.81226869999999,"route":1,"code":"VSG","state":"Goa 403802","lat":15.3963801,"halt":0}},{"id":"56966","days":[{"runs":"Y","day-code":"SUN"},{"runs":"Y","day-code":"MON"},{"runs":"Y","day-code":"TUE"},{"runs":"Y","day-code":"WED"},{"runs":"Y","day-code":"THU"},{"runs":"Y","day-code":"FRI"},{"runs":"Y","day-code":"SAT"}],"classes":[{"available":"-","class-code":"SL"},{"available":"-","class-code":"2S"},{"available":"-","class-code":"3A"},{"available":"-","class-code":"2A"},{"available":"-","class-code":"1A"},{"available":"-","class-code":"FC"},{"available":"-","class-code":"3E"},{"available":"-","class-code":"CC"}],"name":"VSG QLM PASSENGER","route":[{"no":1,"schdep":"17:30","fullname":"VASCO DA GAMA","day":1,"scharr":"SRC","distance":0,"lng":73.81226869999999,"route":1,"code":"VSG","state":"Goa 403802","lat":15.3963801,"halt":0},{"no":2,"schdep":"17:35","fullname":"DABOLIM","day":1,"scharr":"17:34","distance":5,"lng":73.8503382,"route":1,"code":"DBM","state":"Goa 403801","lat":15.3883867,"halt":1},{"no":3,"schdep":"17:40","fullname":"SANKVAL","day":1,"scharr":"17:39","distance":8,"lng":73.91479480000001,"route":1,"code":"SKVL","state":"Goa 403110","lat":15.4979256,"halt":1},{"no":4,"schdep":"17:47","fullname":"CANSAULIM","day":1,"scharr":"17:46","distance":12,"lng":73.8975396,"route":1,"code":"CSM","state":"Goa 403712","lat":15.3449439,"halt":1},{"no":5,"schdep":"17:54","fullname":"MAJORDA","day":1,"scharr":"17:53","distance":17,"lng":73.9219459,"route":1,"code":"MJO","state":"Goa 403713","lat":15.3136968,"halt":1},{"no":6,"schdep":"18:04","fullname":"SURAVALI","day":1,"scharr":"18:01","distance":21,"lng":73.9389204,"route":1,"code":"SRVX","state":"Goa 403708","lat":15.2918746,"halt":3},{"no":7,"schdep":"18:15","fullname":"MADGAON","day":1,"scharr":"18:13","distance":27,"lng":73.9702477,"route":1,"code":"MAO","state":"Goa 403601","lat":15.2676603,"halt":2},{"no":8,"schdep":"18:20","fullname":"SANJUJE DA AREY","day":1,"scharr":"18:19","distance":33,"lng":74.010629,"route":1,"code":"SJDA","state":"Goa 403714","lat":15.265708,"halt":1},{"no":9,"schdep":"18:25","fullname":"CHANDAR","day":1,"scharr":"18:24","distance":36,"lng":74.0479362,"route":1,"code":"CNR","state":"Goa 403714","lat":15.2647201,"halt":1},{"no":10,"schdep":"18:33","fullname":"SANVERDAM CHUCH","day":1,"scharr":"18:32","distance":43,"lng":74.1083965,"route":1,"code":"SVM","state":"Goa 403706","lat":15.2642982,"halt":1},{"no":11,"schdep":"18:47","fullname":"KALEEM","day":1,"scharr":"18:46","distance":53,"lng":74.18459299999999,"route":1,"code":"KM","state":"Goa 403410","lat":15.291932,"halt":1},{"no":12,"schdep":"DSTN","fullname":"KULEM","day":1,"scharr":"19:10","distance":61,"lng":74.2437934,"route":1,"code":"QLM","state":"Goa 403410","lat":15.3333646,"halt":0}],"starts":{"no":1,"schdep":"17:30","fullname":"VASCO DA GAMA","day":1,"scharr":"SRC","distance":0,"lng":73.81226869999999,"route":1,"code":"VSG","state":"Goa 403802","lat":15.3963801,"halt":0}},{"id":"56961","days":[{"runs":"Y","day-code":"SUN"},{"runs":"Y","day-code":"MON"},{"runs":"Y","day-code":"TUE"},{"runs":"Y","day-code":"WED"},{"runs":"Y","day-code":"THU"},{"runs":"Y","day-code":"FRI"},{"runs":"Y","day-code":"SAT"}],"classes":[{"available":"-","class-code":"SL"},{"available":"-","class-code":"2S"},{"available":"-","class-code":"3A"},{"available":"-","class-code":"2A"},{"available":"-","class-code":"1A"},{"available":"-","class-code":"FC"},{"available":"-","class-code":"3E"},{"available":"-","class-code":"CC"}],"name":"QLM VSG PASSENGER","route":[{"no":1,"schdep":"06:30","fullname":"KULEM","day":1,"scharr":"SRC","distance":0,"lng":74.2437934,"route":1,"code":"QLM","state":"Goa 403410","lat":15.3333646,"halt":0},{"no":2,"schdep":"06:40","fullname":"KALEEM","day":1,"scharr":"06:39","distance":8,"lng":74.18459299999999,"route":1,"code":"KM","state":"Goa 403410","lat":15.291932,"halt":1},{"no":3,"schdep":"06:53","fullname":"SANVERDAM CHUCH","day":1,"scharr":"06:52","distance":18,"lng":74.1083965,"route":1,"code":"SVM","state":"Goa 403706","lat":15.2642982,"halt":1},{"no":4,"schdep":"07:03","fullname":"CHANDAR","day":1,"scharr":"07:02","distance":25,"lng":74.0479362,"route":1,"code":"CNR","state":"Goa 403714","lat":15.2647201,"halt":1},{"no":5,"schdep":"07:08","fullname":"SANJUJE DA AREY","day":1,"scharr":"07:07","distance":28,"lng":74.010629,"route":1,"code":"SJDA","state":"Goa 403714","lat":15.265708,"halt":1},{"no":6,"schdep":"07:30","fullname":"MADGAON","day":1,"scharr":"07:28","distance":34,"lng":73.9702477,"route":1,"code":"MAO","state":"Goa 403601","lat":15.2676603,"halt":2},{"no":7,"schdep":"07:36","fullname":"SURAVALI","day":1,"scharr":"07:35","distance":40,"lng":73.9389204,"route":1,"code":"SRVX","state":"Goa 403708","lat":15.2918746,"halt":1},{"no":8,"schdep":"07:42","fullname":"MAJORDA","day":1,"scharr":"07:40","distance":44,"lng":73.9219459,"route":1,"code":"MJO","state":"Goa 403713","lat":15.3136968,"halt":2},{"no":9,"schdep":"07:54","fullname":"CANSAULIM","day":1,"scharr":"07:53","distance":49,"lng":73.8975396,"route":1,"code":"CSM","state":"Goa 403712","lat":15.3449439,"halt":1},{"no":10,"schdep":"08:00","fullname":"SANKVAL","day":1,"scharr":"07:59","distance":53,"lng":73.91479480000001,"route":1,"code":"SKVL","state":"Goa 403110","lat":15.4979256,"halt":0},{"no":11,"schdep":"08:05","fullname":"DABOLIM","day":1,"scharr":"08:04","distance":56,"lng":73.8503382,"route":1,"code":"DBM","state":"Goa 403801","lat":15.3883867,"halt":1},{"no":12,"schdep":"DSTN","fullname":"VASCO DA GAMA","day":1,"scharr":"08:20","distance":61,"lng":73.81226869999999,"route":1,"code":"VSG","state":"Goa 403802","lat":15.3963801,"halt":0}],"starts":{"no":1,"schdep":"06:30","fullname":"KULEM","day":1,"scharr":"SRC","distance":0,"lng":74.2437934,"route":1,"code":"QLM","state":"Goa 403410","lat":15.3333646,"halt":0}},{"id":"57122","days":[{"runs":"Y","day-code":"SUN"},{"runs":"Y","day-code":"MON"},{"runs":"Y","day-code":"TUE"},{"runs":"Y","day-code":"WED"},{"runs":"Y","day-code":"THU"},{"runs":"Y","day-code":"FRI"},{"runs":"Y","day-code":"SAT"}],"classes":[{"available":"-","class-code":"SL"},{"available":"-","class-code":"2S"},{"available":"-","class-code":"3A"},{"available":"-","class-code":"2A"},{"available":"-","class-code":"1A"},{"available":"-","class-code":"FC"},{"available":"-","class-code":"3E"},{"available":"-","class-code":"CC"}],"name":"SRUR KZJ PASSENGER","route":[{"no":1,"schdep":"15:15","fullname":"SIRPUR TOWN","day":1,"scharr":"SRC","distance":0,"lng":79.5606993,"route":1,"code":"SRUR","state":"Telangana 504299","lat":19.4788121,"halt":0},{"no":2,"schdep":"15:30","fullname":"SIRPUR KAGAZNGR","day":1,"scharr":"15:29","distance":17,"lng":79.48999189999999,"route":1,"code":"SKZR","state":"Telangana 504296","lat":19.3465676,"halt":1},{"no":3,"schdep":"15:45","fullname":"ASIFABAD ROAD","day":1,"scharr":"15:44","distance":32,"lng":79.41661169999999,"route":1,"code":"ASAF","state":"Telangana 504292","lat":19.2571392,"halt":1},{"no":4,"schdep":"16:00","fullname":"RECHNI ROAD","day":1,"scharr":"15:59","distance":45,"lng":79.4516364,"route":1,"code":"RECH","state":"Telangana 504272","lat":19.1407082,"halt":0},{"no":5,"schdep":"16:15","fullname":"BELAMPALLI","day":1,"scharr":"16:14","distance":56,"lng":79.4862074,"route":1,"code":"BPA","state":"Telangana 504251","lat":19.0528255,"halt":1},{"no":6,"schdep":"16:25","fullname":"MANDAMARI","day":1,"scharr":"16:24","distance":65,"lng":79.4700369,"route":1,"code":"MMZ","state":"Telangana 504231","lat":18.9697325,"halt":1},{"no":7,"schdep":"16:30","fullname":"RAVINDRAKHANI","day":1,"scharr":"16:29","distance":69,"lng":79.46168689999999,"route":1,"code":"RVKH","state":"Telangana 504301","lat":18.9367058,"halt":1},{"no":8,"schdep":"16:40","fullname":"MANCHERAL","day":1,"scharr":"16:39","distance":76,"lng":79.44782649999999,"route":1,"code":"MCI","state":"Telangana","lat":18.875679,"halt":1},{"no":9,"schdep":"16:50","fullname":"PEDDEMPET","day":1,"scharr":"16:49","distance":85,"lng":79.42725779999999,"route":1,"code":"PPZ","state":"Telangana 505208","lat":18.8031306,"halt":1},{"no":10,"schdep":"17:00","fullname":"RAMGUNDAM","day":1,"scharr":"16:59","distance":89,"lng":79.4348739,"route":1,"code":"RDM","state":"Telangana 505208","lat":18.7638647,"halt":0},{"no":11,"schdep":"17:10","fullname":"RAGHAVAPURAM","day":1,"scharr":"17:09","distance":99,"lng":79.4111313,"route":1,"code":"RGPM","state":"Telangana 505172","lat":18.680972,"halt":1},{"no":12,"schdep":"17:20","fullname":"PEDDAPALLI","day":1,"scharr":"17:19","distance":107,"lng":79.3920888,"route":1,"code":"PDPL","state":"Telangana 505172","lat":18.6137119,"halt":1},{"no":13,"schdep":"17:25","fullname":"KOTTAPALLI","day":1,"scharr":"17:24","distance":115,"lng":79.4034796,"route":1,"code":"KYOP","state":"Telangana 505162","lat":18.5397638,"halt":1},{"no":14,"schdep":"17:30","fullname":"KOLNUR","day":1,"scharr":"17:29","distance":120,"lng":79.4190392,"route":1,"code":"KOLR","state":"Telangana 505162","lat":18.496435,"halt":1},{"no":15,"schdep":"17:35","fullname":"ODELA","day":1,"scharr":"17:34","distance":126,"lng":79.449463,"route":1,"code":"OEA","state":"Telangana 505152","lat":18.455905,"halt":1},{"no":16,"schdep":"17:40","fullname":"POTKAPALLI","day":1,"scharr":"17:39","distance":129,"lng":79.464122,"route":1,"code":"PTKP","state":"Telangana 505152","lat":18.42853,"halt":1},{"no":17,"schdep":"17:50","fullname":"BISUGIRSHARIF","day":1,"scharr":"17:49","distance":140,"lng":79.4832196,"route":1,"code":"BGSF","state":"Telangana 505475","lat":18.3476573,"halt":1},{"no":18,"schdep":"18:00","fullname":"JAMIKUNTA","day":1,"scharr":"17:59","distance":146,"lng":79.4768922,"route":1,"code":"JMKT","state":"Telangana 505122","lat":18.2898277,"halt":0},{"no":19,"schdep":"18:15","fullname":"UPPAL","day":1,"scharr":"18:14","distance":158,"lng":79.48194749999999,"route":1,"code":"OPL","state":"Telangana 505101","lat":18.1824684,"halt":1},{"no":20,"schdep":"19:00","fullname":"HASANPARTI ROAD","day":1,"scharr":"18:59","distance":170,"lng":79.5022838,"route":1,"code":"HSP","state":"Telangana 506371","lat":18.0779632,"halt":0},{"no":21,"schdep":"DSTN","fullname":"KAZIPET JN","day":1,"scharr":"20:00","distance":191,"lng":79.3920888,"route":1,"code":"KZJ","state":"Telangana 505172","lat":18.6137119,"halt":0}],"starts":{"no":1,"schdep":"15:15","fullname":"SIRPUR TOWN","day":1,"scharr":"SRC","distance":0,"lng":79.5606993,"route":1,"code":"SRUR","state":"Telangana 504299","lat":19.4788121,"halt":0}},{"id":"56962","days":[{"runs":"Y","day-code":"SUN"},{"runs":"Y","day-code":"MON"},{"runs":"Y","day-code":"TUE"},{"runs":"Y","day-code":"WED"},{"runs":"Y","day-code":"THU"},{"runs":"Y","day-code":"FRI"},{"runs":"Y","day-code":"SAT"}],"classes":[{"available":"-","class-code":"SL"},{"available":"-","class-code":"2S"},{"available":"-","class-code":"3A"},{"available":"-","class-code":"2A"},{"available":"-","class-code":"1A"},{"available":"-","class-code":"FC"},{"available":"-","class-code":"3E"},{"available":"-","class-code":"CC"}],"name":"VSG QLM PASSENGER","route":[{"no":1,"schdep":"07:35","fullname":"VASCO DA GAMA","day":1,"scharr":"SRC","distance":0,"lng":73.81226869999999,"route":1,"code":"VSG","state":"Goa 403802","lat":15.3963801,"halt":0},{"no":2,"schdep":"07:40","fullname":"DABOLIM","day":1,"scharr":"07:39","distance":5,"lng":73.8503382,"route":1,"code":"DBM","state":"Goa 403801","lat":15.3883867,"halt":1},{"no":3,"schdep":"07:45","fullname":"SANKVAL","day":1,"scharr":"07:44","distance":8,"lng":73.91479480000001,"route":1,"code":"SKVL","state":"Goa 403110","lat":15.4979256,"halt":1},{"no":4,"schdep":"07:50","fullname":"CANSAULIM","day":1,"scharr":"07:49","distance":12,"lng":73.8975396,"route":1,"code":"CSM","state":"Goa 403712","lat":15.3449439,"halt":1},{"no":5,"schdep":"08:02","fullname":"MAJORDA","day":1,"scharr":"08:01","distance":17,"lng":73.9219459,"route":1,"code":"MJO","state":"Goa 403713","lat":15.3136968,"halt":1},{"no":6,"schdep":"08:06","fullname":"SURAVALI","day":1,"scharr":"08:05","distance":21,"lng":73.9389204,"route":1,"code":"SRVX","state":"Goa 403708","lat":15.2918746,"halt":1},{"no":7,"schdep":"08:15","fullname":"MADGAON","day":1,"scharr":"08:14","distance":27,"lng":73.9702477,"route":1,"code":"MAO","state":"Goa 403601","lat":15.2676603,"halt":1},{"no":8,"schdep":"08:23","fullname":"CHANDAR","day":1,"scharr":"08:22","distance":36,"lng":74.0479362,"route":1,"code":"CNR","state":"Goa 403714","lat":15.2647201,"halt":1},{"no":9,"schdep":"08:31","fullname":"SANVERDAM CHUCH","day":1,"scharr":"08:30","distance":43,"lng":74.1083965,"route":1,"code":"SVM","state":"Goa 403706","lat":15.2642982,"halt":1},{"no":10,"schdep":"08:43","fullname":"KALEEM","day":1,"scharr":"08:41","distance":53,"lng":74.18459299999999,"route":1,"code":"KM","state":"Goa 403410","lat":15.291932,"halt":2},{"no":11,"schdep":"DSTN","fullname":"KULEM","day":1,"scharr":"09:05","distance":61,"lng":74.2437934,"route":1,"code":"QLM","state":"Goa 403410","lat":15.3333646,"halt":0}],"starts":{"no":1,"schdep":"07:35","fullname":"VASCO DA GAMA","day":1,"scharr":"SRC","distance":0,"lng":73.81226869999999,"route":1,"code":"VSG","state":"Goa 403802","lat":15.3963801,"halt":0}},{"id":"56965","days":[{"runs":"Y","day-code":"SUN"},{"runs":"Y","day-code":"MON"},{"runs":"Y","day-code":"TUE"},{"runs":"Y","day-code":"WED"},{"runs":"Y","day-code":"THU"},{"runs":"Y","day-code":"FRI"},{"runs":"Y","day-code":"SAT"}],"classes":[{"available":"-","class-code":"SL"},{"available":"-","class-code":"2S"},{"available":"-","class-code":"3A"},{"available":"-","class-code":"2A"},{"available":"-","class-code":"1A"},{"available":"-","class-code":"FC"},{"available":"-","class-code":"3E"},{"available":"-","class-code":"CC"}],"name":"QLM VSG PASSENGER","route":[{"no":1,"schdep":"17:15","fullname":"KULEM","day":1,"scharr":"SRC","distance":0,"lng":74.2437934,"route":1,"code":"QLM","state":"Goa 403410","lat":15.3333646,"halt":0},{"no":2,"schdep":"17:24","fullname":"KALEEM","day":1,"scharr":"17:23","distance":8,"lng":74.18459299999999,"route":1,"code":"KM","state":"Goa 403410","lat":15.291932,"halt":1},{"no":3,"schdep":"17:40","fullname":"SANVERDAM CHUCH","day":1,"scharr":"17:39","distance":18,"lng":74.1083965,"route":1,"code":"SVM","state":"Goa 403706","lat":15.2642982,"halt":1},{"no":4,"schdep":"17:50","fullname":"CHANDAR","day":1,"scharr":"17:49","distance":25,"lng":74.0479362,"route":1,"code":"CNR","state":"Goa 403714","lat":15.2647201,"halt":1},{"no":5,"schdep":"18:00","fullname":"SANJUJE DA AREY","day":1,"scharr":"17:59","distance":28,"lng":74.010629,"route":1,"code":"SJDA","state":"Goa 403714","lat":15.265708,"halt":0},{"no":6,"schdep":"18:10","fullname":"MADGAON","day":1,"scharr":"18:08","distance":34,"lng":73.9702477,"route":1,"code":"MAO","state":"Goa 403601","lat":15.2676603,"halt":2},{"no":7,"schdep":"18:15","fullname":"SURAVALI","day":1,"scharr":"18:14","distance":40,"lng":73.9389204,"route":1,"code":"SRVX","state":"Goa 403708","lat":15.2918746,"halt":1},{"no":8,"schdep":"18:25","fullname":"MAJORDA","day":1,"scharr":"18:22","distance":44,"lng":73.9219459,"route":1,"code":"MJO","state":"Goa 403713","lat":15.3136968,"halt":3},{"no":9,"schdep":"18:30","fullname":"CANSAULIM","day":1,"scharr":"18:29","distance":49,"lng":73.8975396,"route":1,"code":"CSM","state":"Goa 403712","lat":15.3449439,"halt":1},{"no":10,"schdep":"18:35","fullname":"SANKVAL","day":1,"scharr":"18:34","distance":53,"lng":73.91479480000001,"route":1,"code":"SKVL","state":"Goa 403110","lat":15.4979256,"halt":1},{"no":11,"schdep":"18:40","fullname":"DABOLIM","day":1,"scharr":"18:39","distance":56,"lng":73.8503382,"route":1,"code":"DBM","state":"Goa 403801","lat":15.3883867,"halt":1},{"no":12,"schdep":"DSTN","fullname":"VASCO DA GAMA","day":1,"scharr":"19:00","distance":61,"lng":73.81226869999999,"route":1,"code":"VSG","state":"Goa 403802","lat":15.3963801,"halt":0}],"starts":{"no":1,"schdep":"17:15","fullname":"KULEM","day":1,"scharr":"SRC","distance":0,"lng":74.2437934,"route":1,"code":"QLM","state":"Goa 403410","lat":15.3333646,"halt":0}},{"id":"57121","days":[{"runs":"Y","day-code":"SUN"},{"runs":"Y","day-code":"MON"},{"runs":"Y","day-code":"TUE"},{"runs":"Y","day-code":"WED"},{"runs":"Y","day-code":"THU"},{"runs":"Y","day-code":"FRI"},{"runs":"Y","day-code":"SAT"}],"classes":[{"available":"-","class-code":"SL"},{"available":"-","class-code":"2S"},{"available":"-","class-code":"3A"},{"available":"-","class-code":"2A"},{"available":"-","class-code":"1A"},{"available":"-","class-code":"FC"},{"available":"-","class-code":"3E"},{"available":"-","class-code":"CC"}],"name":"KZJ BPQ PASSENGER","route":[{"no":1,"schdep":"05:00","fullname":"KAZIPET JN","day":1,"scharr":"SRC","distance":0,"lng":79.3920888,"route":1,"code":"KZJ","state":"Telangana 505172","lat":18.6137119,"halt":0},{"no":2,"schdep":"05:14","fullname":"HASANPARTI ROAD","day":1,"scharr":"05:13","distance":21,"lng":79.5022838,"route":1,"code":"HSP","state":"Telangana 506371","lat":18.0779632,"halt":1},{"no":3,"schdep":"05:24","fullname":"UPPAL","day":1,"scharr":"05:23","distance":33,"lng":79.48194749999999,"route":1,"code":"OPL","state":"Telangana 505101","lat":18.1824684,"halt":1},{"no":4,"schdep":"05:34","fullname":"JAMIKUNTA","day":1,"scharr":"05:33","distance":45,"lng":79.4768922,"route":1,"code":"JMKT","state":"Telangana 505122","lat":18.2898277,"halt":1},{"no":5,"schdep":"05:42","fullname":"BISUGIRSHARIF","day":1,"scharr":"05:41","distance":51,"lng":79.4832196,"route":1,"code":"BGSF","state":"Telangana 505475","lat":18.3476573,"halt":1},{"no":6,"schdep":"05:52","fullname":"POTKAPALLI","day":1,"scharr":"05:51","distance":62,"lng":79.464122,"route":1,"code":"PTKP","state":"Telangana 505152","lat":18.42853,"halt":1},{"no":7,"schdep":"05:58","fullname":"ODELA","day":1,"scharr":"05:57","distance":65,"lng":79.449463,"route":1,"code":"OEA","state":"Telangana 505152","lat":18.455905,"halt":1},{"no":8,"schdep":"06:04","fullname":"KOLNUR","day":1,"scharr":"06:03","distance":71,"lng":79.4190392,"route":1,"code":"KOLR","state":"Telangana 505162","lat":18.496435,"halt":1},{"no":9,"schdep":"06:10","fullname":"KOTTAPALLI","day":1,"scharr":"06:09","distance":76,"lng":79.4034796,"route":1,"code":"KYOP","state":"Telangana 505162","lat":18.5397638,"halt":1},{"no":10,"schdep":"06:16","fullname":"PEDDAPALLI","day":1,"scharr":"06:15","distance":84,"lng":79.3920888,"route":1,"code":"PDPL","state":"Telangana 505172","lat":18.6137119,"halt":1},{"no":11,"schdep":"06:30","fullname":"RAGHAVAPURAM","day":1,"scharr":"06:29","distance":92,"lng":79.4111313,"route":1,"code":"RGPM","state":"Telangana 505172","lat":18.680972,"halt":1},{"no":12,"schdep":"06:41","fullname":"RAMGUNDAM","day":1,"scharr":"06:40","distance":102,"lng":79.4348739,"route":1,"code":"RDM","state":"Telangana 505208","lat":18.7638647,"halt":1},{"no":13,"schdep":"06:48","fullname":"PEDDEMPET","day":1,"scharr":"06:47","distance":106,"lng":79.42725779999999,"route":1,"code":"PPZ","state":"Telangana 505208","lat":18.8031306,"halt":1},{"no":14,"schdep":"06:58","fullname":"MANCHERAL","day":1,"scharr":"06:57","distance":115,"lng":79.44782649999999,"route":1,"code":"MCI","state":"Telangana","lat":18.875679,"halt":1},{"no":15,"schdep":"07:04","fullname":"RAVINDRAKHANI","day":1,"scharr":"07:03","distance":122,"lng":79.46168689999999,"route":1,"code":"RVKH","state":"Telangana 504301","lat":18.9367058,"halt":1},{"no":16,"schdep":"07:11","fullname":"MANDAMARI","day":1,"scharr":"07:10","distance":126,"lng":79.4700369,"route":1,"code":"MMZ","state":"Telangana 504231","lat":18.9697325,"halt":1},{"no":17,"schdep":"07:30","fullname":"BELAMPALLI","day":1,"scharr":"07:29","distance":135,"lng":79.4862074,"route":1,"code":"BPA","state":"Telangana 504251","lat":19.0528255,"halt":1},{"no":18,"schdep":"07:40","fullname":"RECHNI ROAD","day":1,"scharr":"07:39","distance":145,"lng":79.4516364,"route":1,"code":"RECH","state":"Telangana 504272","lat":19.1407082,"halt":1},{"no":19,"schdep":"07:55","fullname":"ASIFABAD ROAD","day":1,"scharr":"07:54","distance":159,"lng":79.41661169999999,"route":1,"code":"ASAF","state":"Telangana 504292","lat":19.2571392,"halt":1},{"no":20,"schdep":"08:12","fullname":"SIRPUR KAGAZNGR","day":1,"scharr":"08:10","distance":174,"lng":79.48999189999999,"route":1,"code":"SKZR","state":"Telangana 504296","lat":19.3465676,"halt":2},{"no":21,"schdep":"08:29","fullname":"SIRPUR TOWN","day":1,"scharr":"08:28","distance":191,"lng":79.5606993,"route":1,"code":"SRUR","state":"Telangana 504299","lat":19.4788121,"halt":1},{"no":22,"schdep":"08:40","fullname":"MAKUDI","day":1,"scharr":"08:39","distance":203,"lng":79.47920409999999,"route":1,"code":"MKDI","state":"Maharashtra 442905","lat":19.5375498,"halt":1},{"no":23,"schdep":"08:50","fullname":"WIRUR","day":1,"scharr":"08:49","distance":216,"lng":79.4310052,"route":1,"code":"WIRR","state":"Maharashtra 442905","lat":19.6431964,"halt":1},{"no":24,"schdep":"08:59","fullname":"WIHIRGAON","day":1,"scharr":"08:58","distance":225,"lng":79.4411784,"route":1,"code":"VHGN","state":"Maharashtra 442905","lat":19.7253978,"halt":1},{"no":25,"schdep":"09:10","fullname":"MANIKGARH","day":1,"scharr":"09:09","distance":234,"lng":79.3984938,"route":1,"code":"MAGH","state":"Maharashtra 442905","lat":19.7876982,"halt":1},{"no":26,"schdep":"DSTN","fullname":"BALHARSHAH","day":1,"scharr":"10:30","distance":243,"lng":79.34887499999999,"route":1,"code":"BPQ","state":"Maharashtra 442901","lat":19.8509942,"halt":0}],"starts":{"no":1,"schdep":"05:00","fullname":"KAZIPET JN","day":1,"scharr":"SRC","distance":0,"lng":79.3920888,"route":1,"code":"KZJ","state":"Telangana 505172","lat":18.6137119,"halt":0}},{"id":"56925","days":[{"runs":"Y","day-code":"SUN"},{"runs":"Y","day-code":"MON"},{"runs":"Y","day-code":"TUE"},{"runs":"Y","day-code":"WED"},{"runs":"Y","day-code":"THU"},{"runs":"Y","day-code":"FRI"},{"runs":"Y","day-code":"SAT"}],"classes":[{"available":"-","class-code":"SL"},{"available":"-","class-code":"2S"},{"available":"-","class-code":"3A"},{"available":"-","class-code":"2A"},{"available":"-","class-code":"1A"},{"available":"-","class-code":"FC"},{"available":"-","class-code":"3E"},{"available":"-","class-code":"CC"}],"name":"SBC TK PASSENGER","route":[{"no":1,"schdep":"05:30","fullname":"BANGALORE CY JN","day":1,"scharr":"SRC","distance":0,"lng":77.60989,"route":1,"code":"SBC","state":"Karnataka 560076","lat":12.88234,"halt":0},{"no":2,"schdep":"05:40","fullname":"YASVANTPUR JN","day":1,"scharr":"05:39","distance":5,"lng":77.5507379,"route":1,"code":"YPR","state":"Karnataka 560022","lat":13.0237563,"halt":1},{"no":3,"schdep":"05:50","fullname":"CHIK BANAVAR","day":1,"scharr":"05:49","distance":13,"lng":77.5055569,"route":1,"code":"BAW","state":"Karnataka 560090","lat":13.0747598,"halt":1},{"no":4,"schdep":"06:05","fullname":"DODBELE","day":1,"scharr":"06:04","distance":36,"lng":77.3515821,"route":1,"code":"DBL","state":"Karnataka 562132","lat":13.2166655,"halt":1},{"no":5,"schdep":"06:30","fullname":"KYATSANDRA","day":1,"scharr":"06:29","distance":63,"lng":77.1477395,"route":1,"code":"KIAT","state":"Karnataka 572104","lat":13.3157047,"halt":1},{"no":6,"schdep":"DSTN","fullname":"TUMKUR","day":1,"scharr":"06:50","distance":69,"lng":77.1019481,"route":1,"code":"TK","state":"Karnataka 572102","lat":13.3338102,"halt":0}],"starts":{"no":1,"schdep":"05:30","fullname":"BANGALORE CY JN","day":1,"scharr":"SRC","distance":0,"lng":77.60989,"route":1,"code":"SBC","state":"Karnataka 560076","lat":12.88234,"halt":0}},{"id":"58007","days":[{"runs":"Y","day-code":"SUN"},{"runs":"Y","day-code":"MON"},{"runs":"Y","day-code":"TUE"},{"runs":"Y","day-code":"WED"},{"runs":"Y","day-code":"THU"},{"runs":"Y","day-code":"FRI"},{"runs":"Y","day-code":"SAT"}],"classes":[{"available":"-","class-code":"SL"},{"available":"-","class-code":"2S"},{"available":"-","class-code":"3A"},{"available":"-","class-code":"2A"},{"available":"-","class-code":"1A"},{"available":"-","class-code":"FC"},{"available":"-","class-code":"3E"},{"available":"-","class-code":"CC"}],"name":"KGP BHC PASSENGER","route":[{"no":1,"schdep":"06:35","fullname":"KHARAGPUR JN","day":1,"scharr":"SRC","distance":0,"lng":87.3258378,"route":1,"code":"KGP","state":"West Bengal 721301","lat":22.3408782,"halt":0},{"no":2,"schdep":"06:44","fullname":"HIJILLI","day":1,"scharr":"06:43","distance":6,"lng":87.3191844,"route":1,"code":"HIJ","state":"West Bengal 721302","lat":22.3199194,"halt":1},{"no":3,"schdep":"06:53","fullname":"BENAPUR","day":1,"scharr":"06:52","distance":14,"lng":87.3763036,"route":1,"code":"BPE","state":"West Bengal 721301","lat":22.2721402,"halt":1},{"no":4,"schdep":"07:04","fullname":"NARAYANGARH","day":1,"scharr":"07:03","distance":25,"lng":87.3809471,"route":1,"code":"NYA","state":"West Bengal 721437","lat":22.1737936,"halt":1},{"no":5,"schdep":"07:12","fullname":"BAKHRABAD","day":1,"scharr":"07:11","distance":31,"lng":87.3637866,"route":1,"code":"VKD","state":"West Bengal 721424","lat":22.11886,"halt":1},{"no":6,"schdep":"07:20","fullname":"BELDA","day":1,"scharr":"07:19","distance":37,"lng":87.3366523,"route":1,"code":"BLDA","state":"West Bengal 721424","lat":22.0713034,"halt":1},{"no":7,"schdep":"07:29","fullname":"NIKURSINI","day":1,"scharr":"07:28","distance":45,"lng":87.3058113,"route":1,"code":"NSI","state":"West Bengal 721451","lat":22.0045591,"halt":1},{"no":8,"schdep":"07:38","fullname":"DANTAN","day":1,"scharr":"07:37","distance":54,"lng":87.2700713,"route":1,"code":"DNT","state":"West Bengal 721426","lat":21.8926551,"halt":1},{"no":9,"schdep":"07:45","fullname":"ANGUA","day":1,"scharr":"07:43","distance":58,"lng":87.2700713,"route":1,"code":"AGV","state":"West Bengal 721426","lat":21.8926551,"halt":2},{"no":10,"schdep":"07:52","fullname":"LAKSHANNATH RD","day":1,"scharr":"07:50","distance":64,"lng":87.2509637,"route":1,"code":"LXD","state":"Odisha 756086","lat":21.8419669,"halt":2},{"no":11,"schdep":"08:00","fullname":"JALESWAR","day":1,"scharr":"07:58","distance":70,"lng":87.2200991,"route":1,"code":"JER","state":"West Bengal 756032","lat":21.7975176,"halt":0},{"no":12,"schdep":"08:10","fullname":"RAJGHAT HALT","day":1,"scharr":"08:08","distance":78,"lng":87.1551248,"route":1,"code":"RGT","state":"Odisha 756032","lat":21.7646309,"halt":2},{"no":13,"schdep":"08:18","fullname":"AMARDA ROAD","day":1,"scharr":"08:17","distance":84,"lng":87.10223979999999,"route":1,"code":"ARD","state":"Odisha 756030","lat":21.7340514,"halt":1},{"no":14,"schdep":"08:26","fullname":"BASTA","day":1,"scharr":"08:25","distance":90,"lng":87.0637531,"route":1,"code":"BTS","state":"Odisha 756029","lat":21.7028941,"halt":1},{"no":15,"schdep":"08:33","fullname":"N MAYURBHANJ RD","day":1,"scharr":"08:32","distance":94,"lng":87.0387769,"route":1,"code":"NMBR","state":"Odisha 756029","lat":21.666826,"halt":1},{"no":16,"schdep":"08:41","fullname":"RUPSA JN","day":1,"scharr":"08:40","distance":100,"lng":87.01879439999999,"route":1,"code":"ROP","state":"Odisha 756028","lat":21.6224291,"halt":1},{"no":17,"schdep":"08:49","fullname":"HALDIPADA","day":1,"scharr":"08:48","distance":106,"lng":86.9967037,"route":1,"code":"HIP","state":"Odisha 756027","lat":21.5714187,"halt":1},{"no":18,"schdep":"08:56","fullname":"TIKIRAPAL HALT","day":1,"scharr":"08:55","distance":113,"lng":86.9449747,"route":1,"code":"TKPL","state":"Odisha 756003","lat":21.5362442,"halt":1},{"no":19,"schdep":"09:20","fullname":"BALASORE","day":1,"scharr":"09:15","distance":118,"lng":86.9217297,"route":1,"code":"BLS","state":"Odisha 756001","lat":21.4988902,"halt":5},{"no":20,"schdep":"09:29","fullname":"NILGIRI ROAD","day":1,"scharr":"09:28","distance":128,"lng":72.85204929999999,"route":1,"code":"NGRD","state":"Gujarat 394210","lat":21.165336,"halt":1},{"no":21,"schdep":"09:37","fullname":"KHANTAPARA","day":1,"scharr":"09:36","distance":133,"lng":86.8229985,"route":1,"code":"KHF","state":"Odisha 756053","lat":21.3964548,"halt":1},{"no":22,"schdep":"09:44","fullname":"PANPANA","day":1,"scharr":"09:43","distance":138,"lng":86.79328,"route":1,"code":"PNPN","state":"Odisha 756043","lat":21.36177,"halt":1},{"no":23,"schdep":"09:50","fullname":"BAHANAGA BAZAR","day":1,"scharr":"09:48","distance":142,"lng":86.7615438,"route":1,"code":"BNBR","state":"Odisha 756042","lat":21.3359365,"halt":2},{"no":24,"schdep":"10:00","fullname":"SORO","day":1,"scharr":"09:58","distance":151,"lng":86.69031509999999,"route":1,"code":"SORO","state":"Odisha 756045","lat":21.2911686,"halt":0},{"no":25,"schdep":"10:12","fullname":"SABIRA","day":1,"scharr":"10:11","distance":160,"lng":86.631241,"route":1,"code":"SZZ","state":"Odisha 756045","lat":21.238316,"halt":1},{"no":26,"schdep":"10:20","fullname":"MARKONA","day":1,"scharr":"10:18","distance":166,"lng":86.5958177,"route":1,"code":"MKO","state":"Odisha 756126","lat":21.1951316,"halt":2},{"no":27,"schdep":"10:29","fullname":"RANITAL","day":1,"scharr":"10:28","distance":172,"lng":86.55681609999999,"route":1,"code":"RNTL","state":"Odisha 756111","lat":21.1498096,"halt":1},{"no":28,"schdep":"DSTN","fullname":"BHADRAKH","day":1,"scharr":"11:00","distance":180,"lng":86.5183788,"route":1,"code":"BHC","state":"Odisha 756101","lat":21.0900568,"halt":0}],"starts":{"no":1,"schdep":"06:35","fullname":"KHARAGPUR JN","day":1,"scharr":"SRC","distance":0,"lng":87.3258378,"route":1,"code":"KGP","state":"West Bengal 721301","lat":22.3408782,"halt":0}},{"id":"57123","days":[{"runs":"Y","day-code":"SUN"},{"runs":"Y","day-code":"MON"},{"runs":"Y","day-code":"TUE"},{"runs":"Y","day-code":"WED"},{"runs":"Y","day-code":"THU"},{"runs":"Y","day-code":"FRI"},{"runs":"Y","day-code":"SAT"}],"classes":[{"available":"-","class-code":"SL"},{"available":"-","class-code":"2S"},{"available":"-","class-code":"3A"},{"available":"-","class-code":"2A"},{"available":"-","class-code":"1A"},{"available":"-","class-code":"FC"},{"available":"-","class-code":"3E"},{"available":"-","class-code":"CC"}],"name":"BDCR SRUR PASSENGER","route":[{"no":1,"schdep":"05:45","fullname":"BHADRACHALAM RD","day":1,"scharr":"SRC","distance":0,"lng":80.61441839999999,"route":1,"code":"BDCR","state":"Telangana 507101","lat":17.5513181,"halt":0},{"no":2,"schdep":"05:58","fullname":"BETHAMPURDI","day":1,"scharr":"05:57","distance":9,"lng":80.5705065,"route":1,"code":"BTPD","state":"Telangana 507101","lat":17.5429282,"halt":1},{"no":3,"schdep":"06:09","fullname":"TADAKALPUDI","day":1,"scharr":"06:08","distance":16,"lng":80.4646258,"route":1,"code":"TPY","state":"Telangana 507122","lat":17.5162135,"halt":1},{"no":4,"schdep":"06:22","fullname":"CHIMA PAHAD","day":1,"scharr":"06:21","distance":26,"lng":80.4646258,"route":1,"code":"CMW","state":"Telangana 507122","lat":17.5162135,"halt":1},{"no":5,"schdep":"06:31","fullname":"GANDHIPURAM HALT","day":1,"scharr":"06:30","distance":33,"lng":80.3134329,"route":1,"code":"GHPU","state":"Telangana 507122","lat":17.4948325,"halt":1},{"no":6,"schdep":"06:41","fullname":"KAREPALLI","day":1,"scharr":"06:40","distance":39,"lng":80.2716087,"route":1,"code":"KRA","state":"Telangana 507122","lat":17.5111751,"halt":1},{"no":7,"schdep":"06:51","fullname":"POCHARAM","day":1,"scharr":"06:50","distance":47,"lng":80.205519,"route":1,"code":"PCZ","state":"Telangana 507210","lat":17.467357,"halt":1},{"no":8,"schdep":"07:30","fullname":"DORNAKAL JN","day":1,"scharr":"07:25","distance":52,"lng":80.152976,"route":1,"code":"DKJ","state":"Telangana 506381","lat":17.446015,"halt":5},{"no":9,"schdep":"07:35","fullname":"GARLA","day":1,"scharr":"07:34","distance":56,"lng":80.0797975,"route":1,"code":"GLA","state":"Telangana 506105","lat":17.5321718,"halt":1},{"no":10,"schdep":"07:40","fullname":"GUNDRATIMADUGU","day":1,"scharr":"07:39","distance":65,"lng":80.0797975,"route":1,"code":"GUU","state":"Telangana 506105","lat":17.5321718,"halt":1},{"no":11,"schdep":"07:50","fullname":"MAHBUBABAD","day":1,"scharr":"07:49","distance":76,"lng":80.00074769999999,"route":1,"code":"MABD","state":"Telangana 506101","lat":17.5974475,"halt":1},{"no":12,"schdep":"08:00","fullname":"TADLA PUSAPALLI","day":1,"scharr":"07:59","distance":82,"lng":79.955266,"route":1,"code":"TAA","state":"Telangana 506101","lat":17.626104,"halt":0},{"no":13,"schdep":"08:10","fullname":"KESAMUDRAM","day":1,"scharr":"08:09","distance":91,"lng":79.8966173,"route":1,"code":"KDM","state":"Telangana 506112","lat":17.686324,"halt":1},{"no":14,"schdep":"08:16","fullname":"INTAKANNE","day":1,"scharr":"08:15","distance":97,"lng":79.8615289,"route":1,"code":"INK","state":"Telangana 506112","lat":17.7281572,"halt":1},{"no":15,"schdep":"08:25","fullname":"NEKONDA","day":1,"scharr":"08:24","distance":107,"lng":79.8045386,"route":1,"code":"NKD","state":"Telangana 506122","lat":17.7948682,"halt":1},{"no":16,"schdep":"08:33","fullname":"YELGUR","day":1,"scharr":"08:32","distance":116,"lng":79.74721319999999,"route":1,"code":"YGL","state":"Telangana 506330","lat":17.8611163,"halt":1},{"no":17,"schdep":"08:40","fullname":"CHINTALPALLI","day":1,"scharr":"08:39","distance":124,"lng":79.7021274,"route":1,"code":"CLE","state":"Telangana 506330","lat":17.9144295,"halt":1},{"no":18,"schdep":"09:22","fullname":"WARANGAL","day":1,"scharr":"09:20","distance":136,"lng":79.60570799999999,"route":1,"code":"WL","state":"Telangana 506002","lat":17.973252,"halt":2},{"no":19,"schdep":"10:00","fullname":"KAZIPET F CABIN","day":1,"scharr":"09:55","distance":145,"lng":79.5189651,"route":1,"code":"KZJF","state":"Telangana 506004","lat":17.9830676,"halt":0},{"no":20,"schdep":"10:20","fullname":"HASANPARTI ROAD","day":1,"scharr":"10:19","distance":156,"lng":79.5022838,"route":1,"code":"HSP","state":"Telangana 506371","lat":18.0779632,"halt":1},{"no":21,"schdep":"10:30","fullname":"UPPAL","day":1,"scharr":"10:29","distance":168,"lng":79.48194749999999,"route":1,"code":"OPL","state":"Telangana 505101","lat":18.1824684,"halt":1},{"no":22,"schdep":"10:40","fullname":"JAMIKUNTA","day":1,"scharr":"10:39","distance":180,"lng":79.4768922,"route":1,"code":"JMKT","state":"Telangana 505122","lat":18.2898277,"halt":1},{"no":23,"schdep":"10:48","fullname":"BISUGIRSHARIF","day":1,"scharr":"10:47","distance":187,"lng":79.4832196,"route":1,"code":"BGSF","state":"Telangana 505475","lat":18.3476573,"halt":1},{"no":24,"schdep":"11:00","fullname":"POTKAPALLI","day":1,"scharr":"10:59","distance":197,"lng":79.464122,"route":1,"code":"PTKP","state":"Telangana 505152","lat":18.42853,"halt":0},{"no":25,"schdep":"11:05","fullname":"ODELA","day":1,"scharr":"11:04","distance":200,"lng":79.449463,"route":1,"code":"OEA","state":"Telangana 505152","lat":18.455905,"halt":1},{"no":26,"schdep":"11:15","fullname":"KOLNUR","day":1,"scharr":"11:14","distance":206,"lng":79.4190392,"route":1,"code":"KOLR","state":"Telangana 505162","lat":18.496435,"halt":1},{"no":27,"schdep":"11:20","fullname":"KOTTAPALLI","day":1,"scharr":"11:19","distance":211,"lng":79.4034796,"route":1,"code":"KYOP","state":"Telangana 505162","lat":18.5397638,"halt":1},{"no":28,"schdep":"11:30","fullname":"PEDDAPALLI","day":1,"scharr":"11:29","distance":219,"lng":79.3920888,"route":1,"code":"PDPL","state":"Telangana 505172","lat":18.6137119,"halt":1},{"no":29,"schdep":"11:40","fullname":"RAGHAVAPURAM","day":1,"scharr":"11:39","distance":227,"lng":79.4111313,"route":1,"code":"RGPM","state":"Telangana 505172","lat":18.680972,"halt":1},{"no":30,"schdep":"11:50","fullname":"RAMGUNDAM","day":1,"scharr":"11:49","distance":237,"lng":79.4348739,"route":1,"code":"RDM","state":"Telangana 505208","lat":18.7638647,"halt":1},{"no":31,"schdep":"12:00","fullname":"PEDDEMPET","day":1,"scharr":"11:59","distance":242,"lng":79.42725779999999,"route":1,"code":"PPZ","state":"Telangana 505208","lat":18.8031306,"halt":0},{"no":32,"schdep":"12:10","fullname":"MANCHERAL","day":1,"scharr":"12:09","distance":251,"lng":79.44782649999999,"route":1,"code":"MCI","state":"Telangana","lat":18.875679,"halt":1},{"no":33,"schdep":"12:20","fullname":"RAVINDRAKHANI","day":1,"scharr":"12:19","distance":257,"lng":79.46168689999999,"route":1,"code":"RVKH","state":"Telangana 504301","lat":18.9367058,"halt":1},{"no":34,"schdep":"12:25","fullname":"MANDAMARI","day":1,"scharr":"12:24","distance":261,"lng":79.4700369,"route":1,"code":"MMZ","state":"Telangana 504231","lat":18.9697325,"halt":1},{"no":35,"schdep":"12:40","fullname":"BELAMPALLI","day":1,"scharr":"12:39","distance":270,"lng":79.4862074,"route":1,"code":"BPA","state":"Telangana 504251","lat":19.0528255,"halt":1},{"no":36,"schdep":"13:00","fullname":"RECHNI ROAD","day":1,"scharr":"12:59","distance":281,"lng":79.4516364,"route":1,"code":"RECH","state":"Telangana 504272","lat":19.1407082,"halt":0},{"no":37,"schdep":"13:10","fullname":"ASIFABAD ROAD","day":1,"scharr":"13:09","distance":295,"lng":79.41661169999999,"route":1,"code":"ASAF","state":"Telangana 504292","lat":19.2571392,"halt":1},{"no":38,"schdep":"13:35","fullname":"SIRPUR KAGAZNGR","day":1,"scharr":"13:30","distance":309,"lng":79.48999189999999,"route":1,"code":"SKZR","state":"Telangana 504296","lat":19.3465676,"halt":5},{"no":39,"schdep":"DSTN","fullname":"SIRPUR TOWN","day":1,"scharr":"14:45","distance":327,"lng":79.5606993,"route":1,"code":"SRUR","state":"Telangana 504299","lat":19.4788121,"halt":0}],"starts":{"no":1,"schdep":"05:45","fullname":"BHADRACHALAM RD","day":1,"scharr":"SRC","distance":0,"lng":80.61441839999999,"route":1,"code":"BDCR","state":"Telangana 507101","lat":17.5513181,"halt":0}},{"id":"57133","days":[{"runs":"Y","day-code":"SUN"},{"runs":"Y","day-code":"MON"},{"runs":"Y","day-code":"TUE"},{"runs":"Y","day-code":"WED"},{"runs":"Y","day-code":"THU"},{"runs":"Y","day-code":"FRI"},{"runs":"Y","day-code":"SAT"}],"classes":[{"available":"-","class-code":"SL"},{"available":"-","class-code":"2S"},{"available":"-","class-code":"3A"},{"available":"-","class-code":"2A"},{"available":"-","class-code":"1A"},{"available":"-","class-code":"FC"},{"available":"-","class-code":"3E"},{"available":"-","class-code":"CC"}],"name":"BJP RC PASSENGER","route":[{"no":1,"schdep":"12:25","fullname":"BIJAPUR","day":1,"scharr":"SRC","distance":0,"lng":75.73968289999999,"route":1,"code":"BJP","state":"Karnataka 586104","lat":16.8301467,"halt":0},{"no":2,"schdep":"12:35","fullname":"MINCHNAL","day":1,"scharr":"12:34","distance":18,"lng":75.8218911,"route":1,"code":"MNL","state":"Karnataka 586119","lat":16.9711978,"halt":1},{"no":3,"schdep":"12:45","fullname":"KYATANEAKERI RD","day":1,"scharr":"12:44","distance":27,"lng":75.82098309999999,"route":1,"code":"KTK","state":"Karnataka 586117","lat":17.0531416,"halt":1},{"no":4,"schdep":"12:55","fullname":"NIMBAL","day":1,"scharr":"12:54","distance":36,"lng":75.8602038,"route":1,"code":"NBL","state":"Karnataka 586211","lat":17.1186676,"halt":1},{"no":5,"schdep":"13:05","fullname":"CHORGI","day":1,"scharr":"13:04","distance":43,"lng":75.8700073,"route":1,"code":"CHRG","state":"Karnataka 586211","lat":17.1754585,"halt":1},{"no":6,"schdep":"13:15","fullname":"INDI ROAD","day":1,"scharr":"13:14","distance":50,"lng":75.95447759999999,"route":1,"code":"IDR","state":"Karnataka 586209","lat":17.1767629,"halt":1},{"no":7,"schdep":"13:30","fullname":"LACHYAN","day":1,"scharr":"13:29","distance":60,"lng":75.9714085,"route":1,"code":"LHN","state":"Karnataka 586211","lat":17.279009,"halt":1},{"no":8,"schdep":"13:40","fullname":"PADNUR","day":1,"scharr":"13:39","distance":66,"lng":75.9841947,"route":1,"code":"PDNR","state":"Maharashtra 586211","lat":17.3218626,"halt":1},{"no":9,"schdep":"13:50","fullname":"TADWAL","day":1,"scharr":"13:49","distance":74,"lng":75.9756237,"route":1,"code":"TVL","state":"Maharashtra 413219","lat":17.3930873,"halt":1},{"no":10,"schdep":"14:00","fullname":"SULERJAVALGE","day":1,"scharr":"13:59","distance":81,"lng":75.9748527,"route":1,"code":"SLGE","state":"Maharashtra 413008","lat":17.4589242,"halt":0},{"no":11,"schdep":"14:10","fullname":"AHERWADI","day":1,"scharr":"14:09","distance":87,"lng":75.9954405,"route":1,"code":"AHD","state":"Maharashtra 413228","lat":17.5048479,"halt":1},{"no":12,"schdep":"15:25","fullname":"SOLAPUR JN","day":1,"scharr":"15:00","distance":108,"lng":75.8943086,"route":1,"code":"SUR","state":"Maharashtra","lat":17.669965,"halt":25},{"no":13,"schdep":"15:36","fullname":"TIKEKARWADI","day":1,"scharr":"15:35","distance":115,"lng":75.9337635,"route":1,"code":"TKWD","state":"Maharashtra 413224","lat":17.6153426,"halt":1},{"no":14,"schdep":"15:47","fullname":"HOTGI","day":1,"scharr":"15:45","distance":124,"lng":75.9869609,"route":1,"code":"HG","state":"Maharashtra","lat":17.5616694,"halt":2},{"no":15,"schdep":"15:57","fullname":"TILATI","day":1,"scharr":"15:56","distance":133,"lng":76.05749999999999,"route":1,"code":"TLT","state":"Maharashtra 413228","lat":17.512245,"halt":1},{"no":16,"schdep":"16:07","fullname":"AKALKOT ROAD","day":1,"scharr":"16:05","distance":144,"lng":76.2027092,"route":1,"code":"AKOR","state":"Maharashtra 413216","lat":17.5225939,"halt":2},{"no":17,"schdep":"16:16","fullname":"NAGANSUR","day":1,"scharr":"16:15","distance":149,"lng":76.1828578,"route":1,"code":"NGS","state":"Maharashtra 413227","lat":17.4289779,"halt":1},{"no":18,"schdep":"16:28","fullname":"BOROTI","day":1,"scharr":"16:27","distance":158,"lng":76.25642069999999,"route":1,"code":"BOT","state":"Maharashtra 413216","lat":17.3947259,"halt":1},{"no":19,"schdep":"16:47","fullname":"DUDHANI","day":1,"scharr":"16:45","distance":172,"lng":76.380211,"route":1,"code":"DUD","state":"Maharashtra 413220","lat":17.3626151,"halt":2},{"no":20,"schdep":"17:00","fullname":"KULALI","day":1,"scharr":"16:58","distance":181,"lng":76.4701358,"route":1,"code":"KUI","state":"Karnataka 585236","lat":17.357512,"halt":0},{"no":21,"schdep":"17:10","fullname":"GAUDGAON","day":1,"scharr":"17:09","distance":189,"lng":76.53143659999999,"route":1,"code":"GDGN","state":"Karnataka 585236","lat":17.3364198,"halt":1},{"no":22,"schdep":"17:20","fullname":"GANAGAPUR ROAD","day":1,"scharr":"17:18","distance":195,"lng":76.7269407,"route":1,"code":"GUR","state":"Rajasthan 322202","lat":26.4693553,"halt":2},{"no":23,"schdep":"17:30","fullname":"HUNSIHADGIL","day":1,"scharr":"17:29","distance":201,"lng":76.6465958,"route":1,"code":"HHD","state":"Karnataka 585213","lat":17.3526926,"halt":1},{"no":24,"schdep":"17:40","fullname":"SAWALGI","day":1,"scharr":"17:39","distance":208,"lng":76.71137499999999,"route":1,"code":"SVG","state":"Karnataka 585213","lat":17.3396818,"halt":1},{"no":25,"schdep":"17:50","fullname":"BABLAD","day":1,"scharr":"17:49","distance":216,"lng":76.77882559999999,"route":1,"code":"BBD","state":"Karnataka 585103","lat":17.3371416,"halt":1},{"no":26,"schdep":"18:05","fullname":"GULBARGA","day":1,"scharr":"18:00","distance":221,"lng":76.82434310000001,"route":1,"code":"GR","state":"Karnataka 585102","lat":17.3147387,"halt":5},{"no":27,"schdep":"18:17","fullname":"HIRENANDURU","day":1,"scharr":"18:16","distance":231,"lng":76.87317709999999,"route":1,"code":"HQR","state":"Karnataka 585102","lat":17.2576871,"halt":1},{"no":28,"schdep":"18:26","fullname":"MARTUR","day":1,"scharr":"18:25","distance":238,"lng":76.90218,"route":1,"code":"MR","state":"Karnataka 585228","lat":17.200403,"halt":1},{"no":29,"schdep":"18:40","fullname":"SHAHABAD","day":1,"scharr":"18:38","distance":248,"lng":76.943348,"route":1,"code":"SDB","state":"Karnataka 585228","lat":17.12129,"halt":2},{"no":30,"schdep":"19:10","fullname":"WADI","day":1,"scharr":"19:00","distance":258,"lng":76.99239539999999,"route":1,"code":"WADI","state":"Karnataka 585225","lat":17.0581362,"halt":10},{"no":31,"schdep":"19:25","fullname":"NALWAR","day":1,"scharr":"19:24","distance":272,"lng":77.0192527,"route":1,"code":"NW","state":"Karnataka 585218","lat":16.9328489,"halt":1},{"no":32,"schdep":"19:33","fullname":"SHAMPURHALLI","day":1,"scharr":"19:32","distance":279,"lng":77.0332897,"route":1,"code":"SPHL","state":"Karnataka 585202","lat":16.8756573,"halt":1},{"no":33,"schdep":"19:41","fullname":"THANGUNDI","day":1,"scharr":"19:40","distance":288,"lng":77.0680489,"route":1,"code":"TGDE","state":"Karnataka 585202","lat":16.8036473,"halt":1},{"no":34,"schdep":"19:51","fullname":"YADGIR","day":1,"scharr":"19:50","distance":297,"lng":77.1591389,"route":1,"code":"YG","state":"Karnataka 585202","lat":16.7298277,"halt":1},{"no":35,"schdep":"20:03","fullname":"LINGIRI","day":1,"scharr":"20:02","distance":308,"lng":77.18078489999999,"route":1,"code":"LGRE","state":"Karnataka 585202","lat":16.6894772,"halt":1},{"no":36,"schdep":"20:13","fullname":"SAIDAPUR","day":1,"scharr":"20:12","distance":320,"lng":77.24967529999999,"route":1,"code":"SADP","state":"Karnataka 585221","lat":16.5707738,"halt":1},{"no":37,"schdep":"20:23","fullname":"CHEGUNTA","day":1,"scharr":"20:22","distance":331,"lng":77.3013892,"route":1,"code":"CGTA","state":"Andhra Pradesh 509352","lat":16.485436,"halt":1},{"no":38,"schdep":"20:50","fullname":"KRISHNA","day":1,"scharr":"20:49","distance":340,"lng":77.33939409999999,"route":1,"code":"KSN","state":"Telangana 509352","lat":16.4107794,"halt":1},{"no":39,"schdep":"20:58","fullname":"YADALAPUR","day":1,"scharr":"20:57","distance":343,"lng":77.33939409999999,"route":1,"code":"YDLP","state":"Telangana 509352","lat":16.4107794,"halt":1},{"no":40,"schdep":"21:10","fullname":"CHIKSUGAR","day":1,"scharr":"21:09","distance":349,"lng":77.34401799999999,"route":1,"code":"CK","state":"Karnataka 584170","lat":16.3368,"halt":1},{"no":41,"schdep":"21:20","fullname":"YERMARAS","day":1,"scharr":"21:19","distance":357,"lng":77.3472482,"route":1,"code":"YS","state":"Karnataka 584134","lat":16.2723786,"halt":1},{"no":42,"schdep":"DSTN","fullname":"RAICHUR","day":1,"scharr":"22:20","distance":366,"lng":77.3394418,"route":1,"code":"RC","state":"Karnataka 584101","lat":16.193513,"halt":0}],"starts":{"no":1,"schdep":"12:25","fullname":"BIJAPUR","day":1,"scharr":"SRC","distance":0,"lng":75.73968289999999,"route":1,"code":"BJP","state":"Karnataka 586104","lat":16.8301467,"halt":0}},{"id":"57134","days":[{"runs":"Y","day-code":"SUN"},{"runs":"Y","day-code":"MON"},{"runs":"Y","day-code":"TUE"},{"runs":"Y","day-code":"WED"},{"runs":"Y","day-code":"THU"},{"runs":"Y","day-code":"FRI"},{"runs":"Y","day-code":"SAT"}],"classes":[{"available":"-","class-code":"SL"},{"available":"-","class-code":"2S"},{"available":"-","class-code":"3A"},{"available":"-","class-code":"2A"},{"available":"-","class-code":"1A"},{"available":"-","class-code":"FC"},{"available":"-","class-code":"3E"},{"available":"-","class-code":"CC"}],"name":"RC BJP PASSENGER","route":[{"no":1,"schdep":"07:00","fullname":"RAICHUR","day":1,"scharr":"SRC","distance":0,"lng":77.3394418,"route":1,"code":"RC","state":"Karnataka 584101","lat":16.193513,"halt":0},{"no":2,"schdep":"07:10","fullname":"YERMARAS","day":1,"scharr":"07:09","distance":9,"lng":77.3472482,"route":1,"code":"YS","state":"Karnataka 584134","lat":16.2723786,"halt":1},{"no":3,"schdep":"07:17","fullname":"CHIKSUGAR","day":1,"scharr":"07:16","distance":16,"lng":77.34401799999999,"route":1,"code":"CK","state":"Karnataka 584170","lat":16.3368,"halt":1},{"no":4,"schdep":"07:27","fullname":"YADALAPUR","day":1,"scharr":"07:26","distance":22,"lng":77.33939409999999,"route":1,"code":"YDLP","state":"Telangana 509352","lat":16.4107794,"halt":1},{"no":5,"schdep":"07:33","fullname":"KRISHNA","day":1,"scharr":"07:32","distance":25,"lng":77.33939409999999,"route":1,"code":"KSN","state":"Telangana 509352","lat":16.4107794,"halt":1},{"no":6,"schdep":"07:44","fullname":"CHEGUNTA","day":1,"scharr":"07:43","distance":34,"lng":77.3013892,"route":1,"code":"CGTA","state":"Andhra Pradesh 509352","lat":16.485436,"halt":1},{"no":7,"schdep":"07:53","fullname":"SAIDAPUR","day":1,"scharr":"07:52","distance":45,"lng":77.24967529999999,"route":1,"code":"SADP","state":"Karnataka 585221","lat":16.5707738,"halt":1},{"no":8,"schdep":"08:04","fullname":"LINGIRI","day":1,"scharr":"08:03","distance":58,"lng":77.18078489999999,"route":1,"code":"LGRE","state":"Karnataka 585202","lat":16.6894772,"halt":1},{"no":9,"schdep":"08:13","fullname":"YADGIR","day":1,"scharr":"08:12","distance":68,"lng":77.1591389,"route":1,"code":"YG","state":"Karnataka 585202","lat":16.7298277,"halt":1},{"no":10,"schdep":"08:24","fullname":"THANGUNDI","day":1,"scharr":"08:23","distance":78,"lng":77.0680489,"route":1,"code":"TGDE","state":"Karnataka 585202","lat":16.8036473,"halt":1},{"no":11,"schdep":"08:31","fullname":"SHAMPURHALLI","day":1,"scharr":"08:30","distance":86,"lng":77.0332897,"route":1,"code":"SPHL","state":"Karnataka 585202","lat":16.8756573,"halt":1},{"no":12,"schdep":"09:05","fullname":"NALWAR","day":1,"scharr":"09:04","distance":94,"lng":77.0192527,"route":1,"code":"NW","state":"Karnataka 585218","lat":16.9328489,"halt":1},{"no":13,"schdep":"09:45","fullname":"WADI","day":1,"scharr":"09:40","distance":107,"lng":76.99239539999999,"route":1,"code":"WADI","state":"Karnataka 585225","lat":17.0581362,"halt":5},{"no":14,"schdep":"09:59","fullname":"SHAHABAD","day":1,"scharr":"09:58","distance":117,"lng":76.943348,"route":1,"code":"SDB","state":"Karnataka 585228","lat":17.12129,"halt":1},{"no":15,"schdep":"10:10","fullname":"MARTUR","day":1,"scharr":"10:09","distance":128,"lng":76.90218,"route":1,"code":"MR","state":"Karnataka 585228","lat":17.200403,"halt":1},{"no":16,"schdep":"10:18","fullname":"HIRENANDURU","day":1,"scharr":"10:17","distance":134,"lng":76.87317709999999,"route":1,"code":"HQR","state":"Karnataka 585102","lat":17.2576871,"halt":1},{"no":17,"schdep":"10:40","fullname":"GULBARGA","day":1,"scharr":"10:35","distance":144,"lng":76.82434310000001,"route":1,"code":"GR","state":"Karnataka 585102","lat":17.3147387,"halt":5},{"no":18,"schdep":"10:48","fullname":"BABLAD","day":1,"scharr":"10:47","distance":149,"lng":76.77882559999999,"route":1,"code":"BBD","state":"Karnataka 585103","lat":17.3371416,"halt":1},{"no":19,"schdep":"10:56","fullname":"SAWALGI","day":1,"scharr":"10:55","distance":157,"lng":76.71137499999999,"route":1,"code":"SVG","state":"Karnataka 585213","lat":17.3396818,"halt":1},{"no":20,"schdep":"11:04","fullname":"HUNSIHADGIL","day":1,"scharr":"11:03","distance":164,"lng":76.6465958,"route":1,"code":"HHD","state":"Karnataka 585213","lat":17.3526926,"halt":1},{"no":21,"schdep":"11:12","fullname":"GANAGAPUR ROAD","day":1,"scharr":"11:10","distance":170,"lng":76.7269407,"route":1,"code":"GUR","state":"Rajasthan 322202","lat":26.4693553,"halt":2},{"no":22,"schdep":"11:21","fullname":"GAUDGAON","day":1,"scharr":"11:20","distance":176,"lng":76.53143659999999,"route":1,"code":"GDGN","state":"Karnataka 585236","lat":17.3364198,"halt":1},{"no":23,"schdep":"11:30","fullname":"KULALI","day":1,"scharr":"11:29","distance":184,"lng":76.4701358,"route":1,"code":"KUI","state":"Karnataka 585236","lat":17.357512,"halt":1},{"no":24,"schdep":"11:45","fullname":"DUDHANI","day":1,"scharr":"11:44","distance":194,"lng":76.380211,"route":1,"code":"DUD","state":"Maharashtra 413220","lat":17.3626151,"halt":1},{"no":25,"schdep":"12:00","fullname":"BOROTI","day":1,"scharr":"11:59","distance":207,"lng":76.25642069999999,"route":1,"code":"BOT","state":"Maharashtra 413216","lat":17.3947259,"halt":0},{"no":26,"schdep":"12:10","fullname":"NAGANSUR","day":1,"scharr":"12:09","distance":216,"lng":76.1828578,"route":1,"code":"NGS","state":"Maharashtra 413227","lat":17.4289779,"halt":1},{"no":27,"schdep":"12:20","fullname":"AKALKOT ROAD","day":1,"scharr":"12:19","distance":221,"lng":76.2027092,"route":1,"code":"AKOR","state":"Maharashtra 413216","lat":17.5225939,"halt":1},{"no":28,"schdep":"12:33","fullname":"TILATI","day":1,"scharr":"12:32","distance":232,"lng":76.05749999999999,"route":1,"code":"TLT","state":"Maharashtra 413228","lat":17.512245,"halt":1},{"no":29,"schdep":"14:25","fullname":"SOLAPUR JN","day":1,"scharr":"14:00","distance":257,"lng":75.8943086,"route":1,"code":"SUR","state":"Maharashtra","lat":17.669965,"halt":25},{"no":30,"schdep":"14:37","fullname":"TIKEKARWADI","day":1,"scharr":"14:36","distance":264,"lng":75.9337635,"route":1,"code":"TKWD","state":"Maharashtra 413224","lat":17.6153426,"halt":1},{"no":31,"schdep":"14:57","fullname":"HOTGI","day":1,"scharr":"14:55","distance":272,"lng":75.9869609,"route":1,"code":"HG","state":"Maharashtra","lat":17.5616694,"halt":2},{"no":32,"schdep":"15:10","fullname":"AHERWADI","day":1,"scharr":"15:09","distance":279,"lng":75.9954405,"route":1,"code":"AHD","state":"Maharashtra 413228","lat":17.5048479,"halt":1},{"no":33,"schdep":"15:15","fullname":"SULERJAVALGE","day":1,"scharr":"15:14","distance":284,"lng":75.9748527,"route":1,"code":"SLGE","state":"Maharashtra 413008","lat":17.4589242,"halt":1},{"no":34,"schdep":"15:25","fullname":"TADWAL","day":1,"scharr":"15:24","distance":292,"lng":75.9756237,"route":1,"code":"TVL","state":"Maharashtra 413219","lat":17.3930873,"halt":1},{"no":35,"schdep":"15:35","fullname":"PADNUR","day":1,"scharr":"15:34","distance":300,"lng":75.9841947,"route":1,"code":"PDNR","state":"Maharashtra 586211","lat":17.3218626,"halt":1},{"no":36,"schdep":"15:55","fullname":"LACHYAN","day":1,"scharr":"15:53","distance":305,"lng":75.9714085,"route":1,"code":"LHN","state":"Karnataka 586211","lat":17.279009,"halt":2},{"no":37,"schdep":"16:20","fullname":"INDI ROAD","day":1,"scharr":"16:19","distance":315,"lng":75.95447759999999,"route":1,"code":"IDR","state":"Karnataka 586209","lat":17.1767629,"halt":1},{"no":38,"schdep":"16:30","fullname":"CHORGI","day":1,"scharr":"16:29","distance":322,"lng":75.8700073,"route":1,"code":"CHRG","state":"Karnataka 586211","lat":17.1754585,"halt":1},{"no":39,"schdep":"16:40","fullname":"NIMBAL","day":1,"scharr":"16:39","distance":329,"lng":75.8602038,"route":1,"code":"NBL","state":"Karnataka 586211","lat":17.1186676,"halt":1},{"no":40,"schdep":"16:50","fullname":"KYATANEAKERI RD","day":1,"scharr":"16:49","distance":338,"lng":75.82098309999999,"route":1,"code":"KTK","state":"Karnataka 586117","lat":17.0531416,"halt":1},{"no":41,"schdep":"17:00","fullname":"MINCHNAL","day":1,"scharr":"16:59","distance":347,"lng":75.8218911,"route":1,"code":"MNL","state":"Karnataka 586119","lat":16.9711978,"halt":0},{"no":42,"schdep":"DSTN","fullname":"BIJAPUR","day":1,"scharr":"17:30","distance":366,"lng":75.73968289999999,"route":1,"code":"BJP","state":"Karnataka 586104","lat":16.8301467,"halt":0}],"starts":{"no":1,"schdep":"07:00","fullname":"RAICHUR","day":1,"scharr":"SRC","distance":0,"lng":77.3394418,"route":1,"code":"RC","state":"Karnataka 584101","lat":16.193513,"halt":0}},{"id":"57404","days":[{"runs":"Y","day-code":"SUN"},{"runs":"Y","day-code":"MON"},{"runs":"Y","day-code":"TUE"},{"runs":"Y","day-code":"WED"},{"runs":"Y","day-code":"THU"},{"runs":"Y","day-code":"FRI"},{"runs":"Y","day-code":"SAT"}],"classes":[{"available":"-","class-code":"SL"},{"available":"-","class-code":"2S"},{"available":"-","class-code":"3A"},{"available":"-","class-code":"2A"},{"available":"-","class-code":"1A"},{"available":"-","class-code":"FC"},{"available":"-","class-code":"3E"},{"available":"-","class-code":"CC"}],"name":"KPD TPTY PASSENGER","route":[{"no":1,"schdep":"06:15","fullname":"KATPADI JN","day":1,"scharr":"SRC","distance":0,"lng":79.1384152,"route":1,"code":"KPD","state":"Tamil Nadu 632007","lat":12.9722421,"halt":0},{"no":2,"schdep":"06:22","fullname":"BOMMASAMUDRAM","day":1,"scharr":"06:21","distance":9,"lng":79.1764569,"route":1,"code":"BUM","state":"Tamil Nadu 632516","lat":13.0447756,"halt":1},{"no":3,"schdep":"06:30","fullname":"RAMAPURAM","day":1,"scharr":"06:29","distance":15,"lng":79.17936639999999,"route":1,"code":"RAM","state":"Andhra Pradesh 517132","lat":13.0980701,"halt":1},{"no":4,"schdep":"06:37","fullname":"PEYANAPALLI","day":1,"scharr":"06:36","distance":21,"lng":79.1373794,"route":1,"code":"PYX","state":"Andhra Pradesh 517419","lat":13.1320034,"halt":1},{"no":5,"schdep":"06:44","fullname":"SIDDAMPALLI","day":1,"scharr":"06:43","distance":24,"lng":79.13709159999999,"route":1,"code":"SIE","state":"Andhra Pradesh 517002","lat":13.159866,"halt":1},{"no":6,"schdep":"06:50","fullname":"CHITTOR","day":1,"scharr":"06:49","distance":32,"lng":79.10351380000002,"route":1,"code":"CTO","state":"Andhra Pradesh 517001","lat":13.2191976,"halt":1},{"no":7,"schdep":"07:05","fullname":"PUTALAPATTU","day":1,"scharr":"07:04","distance":47,"lng":79.1042179,"route":1,"code":"PTT","state":"Andhra Pradesh 517124","lat":13.3335548,"halt":1},{"no":8,"schdep":"07:30","fullname":"PAKALA JN","day":1,"scharr":"07:29","distance":62,"lng":79.1144544,"route":1,"code":"PAK","state":"Andhra Pradesh 517112","lat":13.4512791,"halt":1},{"no":9,"schdep":"07:50","fullname":"PANAPAKAM","day":1,"scharr":"07:49","distance":74,"lng":79.2040336,"route":1,"code":"PAM","state":"Andhra Pradesh 517112","lat":13.5000719,"halt":1},{"no":10,"schdep":"07:59","fullname":"MUNGILIPATTU","day":1,"scharr":"07:58","distance":82,"lng":79.2407977,"route":1,"code":"MNPT","state":"Andhra Pradesh 517102","lat":13.5559082,"halt":1},{"no":11,"schdep":"08:10","fullname":"KOTALA","day":1,"scharr":"08:09","distance":89,"lng":79.286643,"route":1,"code":"KEN","state":"Andhra Pradesh 517102","lat":13.6053491,"halt":1},{"no":12,"schdep":"08:20","fullname":"CHANDRAGIRI","day":1,"scharr":"08:19","distance":92,"lng":79.31215879999999,"route":1,"code":"CGI","state":"Andhra Pradesh 517101","lat":13.6118184,"halt":1},{"no":13,"schdep":"08:30","fullname":"TIRUPATI W HLT","day":1,"scharr":"08:29","distance":103,"lng":79.4191795,"route":1,"code":"TPW","state":"Andhra Pradesh 517501","lat":13.6287557,"halt":1},{"no":14,"schdep":"DSTN","fullname":"TIRUPATI","day":1,"scharr":"09:10","distance":104,"lng":79.41939789999999,"route":1,"code":"TPTY","state":"Andhra Pradesh 517501","lat":13.6278907,"halt":0}],"starts":{"no":1,"schdep":"06:15","fullname":"KATPADI JN","day":1,"scharr":"SRC","distance":0,"lng":79.1384152,"route":1,"code":"KPD","state":"Tamil Nadu 632007","lat":12.9722421,"halt":0}},{"id":"58006","days":[{"runs":"N","day-code":"SUN"},{"runs":"Y","day-code":"MON"},{"runs":"Y","day-code":"TUE"},{"runs":"Y","day-code":"WED"},{"runs":"Y","day-code":"THU"},{"runs":"Y","day-code":"FRI"},{"runs":"Y","day-code":"SAT"}],"classes":[{"available":"-","class-code":"SL"},{"available":"-","class-code":"2S"},{"available":"-","class-code":"3A"},{"available":"-","class-code":"2A"},{"available":"-","class-code":"1A"},{"available":"-","class-code":"FC"},{"available":"-","class-code":"3E"},{"available":"-","class-code":"CC"}],"name":"KUR KGP PASSENGER","route":[{"no":1,"schdep":"16:20","fullname":"KHURDA ROAD JN","day":1,"scharr":"SRC","distance":0,"lng":85.833832,"route":1,"code":"KUR","state":"Odisha 754005","lat":20.392498,"halt":0},{"no":2,"schdep":"16:37","fullname":"LINGARAJ TMP RD","day":1,"scharr":"16:36","distance":14,"lng":0,"route":1,"code":"LGTR","state":"","lat":0,"halt":1},{"no":3,"schdep":"16:45","fullname":"BHUBANESWAR","day":1,"scharr":"16:43","distance":18,"lng":85.84361539999999,"route":1,"code":"BBS","state":"Odisha 751009","lat":20.266601,"halt":2},{"no":4,"schdep":"17:01","fullname":"BARANG","day":1,"scharr":"16:59","distance":35,"lng":85.832385,"route":1,"code":"BRAG","state":"Odisha 754005","lat":20.40429,"halt":2},{"no":5,"schdep":"17:17","fullname":"GHANTIKHAL NDPR","day":1,"scharr":"17:16","distance":51,"lng":85.7363498,"route":1,"code":"GHNH","state":"Odisha 754027","lat":20.5109624,"halt":1},{"no":6,"schdep":"18:05","fullname":"KAPILAS ROAD","day":1,"scharr":"18:04","distance":83,"lng":85.9938971,"route":1,"code":"KIS","state":"Odisha 754022","lat":20.5581928,"halt":1},{"no":7,"schdep":"18:17","fullname":"DHANMANDAL","day":1,"scharr":"18:15","distance":104,"lng":86.11171739999999,"route":1,"code":"DNM","state":"Odisha 754296","lat":20.6870109,"halt":2},{"no":8,"schdep":"18:50","fullname":"JAJPUR K ROAD","day":1,"scharr":"18:45","distance":140,"lng":86.13124270000002,"route":1,"code":"JJKR","state":"Odisha 755019","lat":20.943494,"halt":5},{"no":9,"schdep":"19:00","fullname":"BAITARANI ROAD","day":1,"scharr":"18:59","distance":152,"lng":86.234465,"route":1,"code":"BTV","state":"Odisha 755025","lat":20.987061,"halt":0},{"no":10,"schdep":"19:10","fullname":"MANJURI ROAD","day":1,"scharr":"19:09","distance":160,"lng":86.31956129999999,"route":1,"code":"MZZ","state":"Odisha 756121","lat":21.0120295,"halt":1},{"no":11,"schdep":"20:15","fullname":"BHADRAKH","day":1,"scharr":"20:10","distance":184,"lng":86.5183788,"route":1,"code":"BHC","state":"Odisha 756101","lat":21.0900568,"halt":5},{"no":12,"schdep":"20:22","fullname":"RANITAL","day":1,"scharr":"20:21","distance":192,"lng":86.55681609999999,"route":1,"code":"RNTL","state":"Odisha 756111","lat":21.1498096,"halt":1},{"no":13,"schdep":"20:30","fullname":"MARKONA","day":1,"scharr":"20:29","distance":198,"lng":86.5958177,"route":1,"code":"MKO","state":"Odisha 756126","lat":21.1951316,"halt":1},{"no":14,"schdep":"20:45","fullname":"SORO","day":1,"scharr":"20:44","distance":213,"lng":86.69031509999999,"route":1,"code":"SORO","state":"Odisha 756045","lat":21.2911686,"halt":1},{"no":15,"schdep":"20:54","fullname":"BAHANAGA BAZAR","day":1,"scharr":"20:53","distance":221,"lng":86.7615438,"route":1,"code":"BNBR","state":"Odisha 756042","lat":21.3359365,"halt":1},{"no":16,"schdep":"21:04","fullname":"KHANTAPARA","day":1,"scharr":"21:03","distance":231,"lng":86.8229985,"route":1,"code":"KHF","state":"Odisha 756053","lat":21.3964548,"halt":1},{"no":17,"schdep":"21:11","fullname":"NILGIRI ROAD","day":1,"scharr":"21:10","distance":235,"lng":72.85204929999999,"route":1,"code":"NGRD","state":"Gujarat 394210","lat":21.165336,"halt":1},{"no":18,"schdep":"21:27","fullname":"BALASORE","day":1,"scharr":"21:22","distance":246,"lng":86.9217297,"route":1,"code":"BLS","state":"Odisha 756001","lat":21.4988902,"halt":5},{"no":19,"schdep":"21:40","fullname":"HALDIPADA","day":1,"scharr":"21:39","distance":258,"lng":86.9967037,"route":1,"code":"HIP","state":"Odisha 756027","lat":21.5714187,"halt":1},{"no":20,"schdep":"21:48","fullname":"RUPSA JN","day":1,"scharr":"21:47","distance":264,"lng":87.01879439999999,"route":1,"code":"ROP","state":"Odisha 756028","lat":21.6224291,"halt":1},{"no":21,"schdep":"21:56","fullname":"N MAYURBHANJ RD","day":1,"scharr":"21:55","distance":270,"lng":87.0387769,"route":1,"code":"NMBR","state":"Odisha 756029","lat":21.666826,"halt":1},{"no":22,"schdep":"22:02","fullname":"BASTA","day":1,"scharr":"22:01","distance":274,"lng":87.0637531,"route":1,"code":"BTS","state":"Odisha 756029","lat":21.7028941,"halt":1},{"no":23,"schdep":"22:10","fullname":"AMARDA ROAD","day":1,"scharr":"22:09","distance":279,"lng":87.10223979999999,"route":1,"code":"ARD","state":"Odisha 756030","lat":21.7340514,"halt":1},{"no":24,"schdep":"22:19","fullname":"RAJGHAT HALT","day":1,"scharr":"22:18","distance":286,"lng":87.1551248,"route":1,"code":"RGT","state":"Odisha 756032","lat":21.7646309,"halt":1},{"no":25,"schdep":"22:27","fullname":"JALESWAR","day":1,"scharr":"22:26","distance":293,"lng":87.2200991,"route":1,"code":"JER","state":"West Bengal 756032","lat":21.7975176,"halt":1},{"no":26,"schdep":"22:35","fullname":"LAKSHANNATH RD","day":1,"scharr":"22:34","distance":299,"lng":87.2509637,"route":1,"code":"LXD","state":"Odisha 756086","lat":21.8419669,"halt":1},{"no":27,"schdep":"22:46","fullname":"DANTAN","day":1,"scharr":"22:45","distance":310,"lng":87.2700713,"route":1,"code":"DNT","state":"West Bengal 721426","lat":21.8926551,"halt":1},{"no":28,"schdep":"22:55","fullname":"NIKURSINI","day":1,"scharr":"22:54","distance":318,"lng":87.3058113,"route":1,"code":"NSI","state":"West Bengal 721451","lat":22.0045591,"halt":1},{"no":29,"schdep":"23:03","fullname":"BELDA","day":1,"scharr":"23:02","distance":326,"lng":87.3366523,"route":1,"code":"BLDA","state":"West Bengal 721424","lat":22.0713034,"halt":1},{"no":30,"schdep":"23:11","fullname":"BAKHRABAD","day":1,"scharr":"23:10","distance":332,"lng":87.3637866,"route":1,"code":"VKD","state":"West Bengal 721424","lat":22.11886,"halt":1},{"no":31,"schdep":"23:20","fullname":"NARAYANGARH","day":1,"scharr":"23:19","distance":339,"lng":87.3809471,"route":1,"code":"NYA","state":"West Bengal 721437","lat":22.1737936,"halt":1},{"no":32,"schdep":"DSTN","fullname":"KHARAGPUR JN","day":1,"scharr":"23:50","distance":364,"lng":87.3258378,"route":1,"code":"KGP","state":"West Bengal 721301","lat":22.3408782,"halt":0}],"starts":{"no":1,"schdep":"16:20","fullname":"KHURDA ROAD JN","day":1,"scharr":"SRC","distance":0,"lng":85.833832,"route":1,"code":"KUR","state":"Odisha 754005","lat":20.392498,"halt":0}},{"id":"58206","days":[{"runs":"Y","day-code":"SUN"},{"runs":"Y","day-code":"MON"},{"runs":"Y","day-code":"TUE"},{"runs":"Y","day-code":"WED"},{"runs":"Y","day-code":"THU"},{"runs":"Y","day-code":"FRI"},{"runs":"Y","day-code":"SAT"}],"classes":[{"available":"-","class-code":"SL"},{"available":"-","class-code":"2S"},{"available":"-","class-code":"3A"},{"available":"-","class-code":"2A"},{"available":"-","class-code":"1A"},{"available":"-","class-code":"FC"},{"available":"-","class-code":"3E"},{"available":"-","class-code":"CC"}],"name":"ITR R PASSENGER","route":[{"no":1,"schdep":"07:30","fullname":"ITWARI","day":1,"scharr":"SRC","distance":0,"lng":79.1165912,"route":1,"code":"ITR","state":"Maharashtra","lat":21.1710032,"halt":0},{"no":2,"schdep":"07:42","fullname":"KALUMNA","day":1,"scharr":"07:40","distance":2,"lng":0,"route":1,"code":"KAV","state":"","lat":0,"halt":2},{"no":3,"schdep":"07:55","fullname":"KAMPTEE","day":1,"scharr":"07:52","distance":10,"lng":79.1973505,"route":1,"code":"KP","state":"Maharashtra 441001","lat":21.2111117,"halt":3},{"no":4,"schdep":"08:03","fullname":"KANHAN JN","day":1,"scharr":"08:01","distance":15,"lng":0,"route":1,"code":"KNHN","state":"","lat":0,"halt":2},{"no":5,"schdep":"08:10","fullname":"SALWA","day":1,"scharr":"08:09","distance":20,"lng":79.29266989999999,"route":1,"code":"SAL","state":"Maharashtra 441106","lat":21.2362224,"halt":1},{"no":6,"schdep":"08:17","fullname":"CHACHER","day":1,"scharr":"08:16","distance":27,"lng":79.3553531,"route":1,"code":"CHCR","state":"Maharashtra 441106","lat":21.2417724,"halt":1},{"no":7,"schdep":"08:25","fullname":"THARSA","day":1,"scharr":"08:23","distance":33,"lng":79.4144797,"route":1,"code":"TAR","state":"Maharashtra 441102","lat":21.2562166,"halt":2},{"no":8,"schdep":"08:32","fullname":"REWRAL","day":1,"scharr":"08:30","distance":39,"lng":79.46799519999999,"route":1,"code":"RRL","state":"Maharashtra 441102","lat":21.260841,"halt":2},{"no":9,"schdep":"08:42","fullname":"KHAT","day":1,"scharr":"08:40","distance":48,"lng":79.5511597,"route":1,"code":"KHAT","state":"Maharashtra 441102","lat":21.2425624,"halt":2},{"no":10,"schdep":"08:53","fullname":"BHANDARA ROAD","day":1,"scharr":"08:50","distance":58,"lng":79.9226345,"route":1,"code":"BRD","state":"Maharashtra 441911","lat":21.4129641,"halt":3},{"no":11,"schdep":"09:00","fullname":"KOKA","day":1,"scharr":"08:59","distance":66,"lng":79.711412,"route":1,"code":"KOKA","state":"Maharashtra 441905","lat":21.259164,"halt":0},{"no":12,"schdep":"09:13","fullname":"TUMSAR ROAD","day":1,"scharr":"09:10","distance":76,"lng":79.7511363,"route":1,"code":"TMR","state":"Maharashtra 441913","lat":21.3421934,"halt":3},{"no":13,"schdep":"09:22","fullname":"MUNDIKOTA","day":1,"scharr":"09:21","distance":86,"lng":79.8351574,"route":1,"code":"MNU","state":"Maharashtra 441911","lat":21.3730128,"halt":1},{"no":14,"schdep":"09:32","fullname":"TIRORA","day":1,"scharr":"09:30","distance":96,"lng":79.9178565,"route":1,"code":"TRO","state":"Maharashtra 441911","lat":21.4139838,"halt":2},{"no":15,"schdep":"09:41","fullname":"KACHEWANI","day":1,"scharr":"09:40","distance":103,"lng":79.9814408,"route":1,"code":"KWN","state":"Maharashtra 441614","lat":21.4300243,"halt":1},{"no":16,"schdep":"09:50","fullname":"GANGAJHARI","day":1,"scharr":"09:49","distance":111,"lng":80.05876239999999,"route":1,"code":"GJ","state":"Maharashtra 441614","lat":21.442908,"halt":1},{"no":17,"schdep":"10:15","fullname":"GONDIA JN","day":1,"scharr":"10:10","distance":126,"lng":80.1920398,"route":1,"code":"G","state":"Maharashtra 441601","lat":21.4618542,"halt":5},{"no":18,"schdep":"10:27","fullname":"GUDMA","day":1,"scharr":"10:25","distance":138,"lng":80.2873832,"route":1,"code":"GDM","state":"Maharashtra 441601","lat":21.415728,"halt":2},{"no":19,"schdep":"10:38","fullname":"AMGAON","day":1,"scharr":"10:36","distance":148,"lng":80.37477489999999,"route":1,"code":"AGN","state":"Maharashtra 441902","lat":21.3612729,"halt":2},{"no":20,"schdep":"10:45","fullname":"DHANOLI","day":1,"scharr":"10:44","distance":156,"lng":80.4271048,"route":1,"code":"DNL","state":"Maharashtra 441916","lat":21.3217201,"halt":1},{"no":21,"schdep":"10:54","fullname":"SALEKASA","day":1,"scharr":"10:52","distance":163,"lng":80.49307639999999,"route":1,"code":"SKS","state":"Maharashtra 441916","lat":21.3014099,"halt":2},{"no":22,"schdep":"11:12","fullname":"DAREKASA","day":1,"scharr":"11:10","distance":174,"lng":80.58048959999999,"route":1,"code":"DKS","state":"Maharashtra 441916","lat":21.2709593,"halt":2},{"no":23,"schdep":"11:22","fullname":"BORTALAO","day":1,"scharr":"11:20","distance":182,"lng":80.6261301,"route":1,"code":"BTL","state":"Maharashtra 491445","lat":21.2181407,"halt":2},{"no":24,"schdep":"11:37","fullname":"PANIAJOB","day":1,"scharr":"11:35","distance":191,"lng":80.69402219999999,"route":1,"code":"PJB","state":"Chhattisgarh 491445","lat":21.1841317,"halt":2},{"no":25,"schdep":"13:50","fullname":"DONGARGARH","day":1,"scharr":"11:50","distance":199,"lng":80.7600662,"route":1,"code":"DGG","state":"Chhattisgarh 491445","lat":21.1855851,"halt":120},{"no":26,"schdep":"13:58","fullname":"JATKANHAR","day":1,"scharr":"13:56","distance":205,"lng":80.8215451,"route":1,"code":"JTR","state":"Chhattisgarh 491445","lat":21.1790896,"halt":2},{"no":27,"schdep":"14:12","fullname":"MUSRA","day":1,"scharr":"14:10","distance":212,"lng":80.8785291,"route":1,"code":"MUA","state":"Chhattisgarh 491445","lat":21.1537466,"halt":2},{"no":28,"schdep":"14:21","fullname":"BAKAL","day":1,"scharr":"14:19","distance":220,"lng":80.9414226,"route":1,"code":"BAKL","state":"Chhattisgarh 491441","lat":21.1240821,"halt":2},{"no":29,"schdep":"14:37","fullname":"RAJ NANDGAON","day":1,"scharr":"14:32","distance":230,"lng":81.0390405,"route":1,"code":"RJN","state":"Chhattisgarh 491441","lat":21.1016893,"halt":5},{"no":30,"schdep":"14:46","fullname":"PARMALKASA","day":1,"scharr":"14:44","distance":238,"lng":81.09960439999999,"route":1,"code":"PMS","state":"Chhattisgarh 491441","lat":21.1408588,"halt":2},{"no":31,"schdep":"15:00","fullname":"MURHIPAR","day":1,"scharr":"14:58","distance":245,"lng":81.1489677,"route":1,"code":"MUP","state":"Chhattisgarh 491441","lat":21.1832413,"halt":0},{"no":32,"schdep":"15:12","fullname":"RASMARA","day":1,"scharr":"15:10","distance":253,"lng":81.21698479999999,"route":1,"code":"RSM","state":"Chhattisgarh 491001","lat":21.2046114,"halt":2},{"no":33,"schdep":"16:20","fullname":"DURG","day":1,"scharr":"16:15","distance":260,"lng":81.282749,"route":1,"code":"DURG","state":"Chhattisgarh 491001","lat":21.1928238,"halt":5},{"no":34,"schdep":"16:28","fullname":"BHILAINAGAR","day":1,"scharr":"16:27","distance":264,"lng":81.3339251,"route":1,"code":"BQR","state":"Chhattisgarh 490020","lat":21.2009182,"halt":1},{"no":35,"schdep":"16:35","fullname":"BHILAI PWR HS","day":1,"scharr":"16:33","distance":270,"lng":81.3752567,"route":1,"code":"BPHB","state":"Chhattisgarh 490022","lat":21.2081181,"halt":2},{"no":36,"schdep":"16:41","fullname":"BHILAI","day":1,"scharr":"16:40","distance":274,"lng":81.420936,"route":1,"code":"BIA","state":"Chhattisgarh 490021","lat":21.2026991,"halt":1},{"no":37,"schdep":"16:47","fullname":"H CABIN","day":1,"scharr":"16:45","distance":278,"lng":81.3689428,"route":1,"code":"HCAB","state":"Andhra Pradesh 534235","lat":16.5834688,"halt":2},{"no":38,"schdep":"16:51","fullname":"D CABIN","day":1,"scharr":"16:50","distance":279,"lng":81.3689428,"route":1,"code":"DCAB","state":"Andhra Pradesh 534235","lat":16.5834688,"halt":1},{"no":39,"schdep":"16:56","fullname":"CABIN","day":1,"scharr":"16:55","distance":283,"lng":81.3689428,"route":1,"code":"CABN","state":"Andhra Pradesh 534235","lat":16.5834688,"halt":1},{"no":40,"schdep":"17:01","fullname":"KUMHARI","day":1,"scharr":"17:00","distance":285,"lng":81.5162679,"route":1,"code":"KMI","state":"Chhattisgarh 490042","lat":21.243826,"halt":1},{"no":41,"schdep":"17:11","fullname":"SARONA CABIN","day":1,"scharr":"17:10","distance":291,"lng":81.5739151,"route":1,"code":"SZB","state":"Chhattisgarh 492099","lat":21.2531642,"halt":1},{"no":42,"schdep":"17:17","fullname":"SARASWATI NAGAR","day":1,"scharr":"17:16","distance":296,"lng":81.6044283,"route":1,"code":"SRWN","state":"Chhattisgarh 492010","lat":21.252112,"halt":1},{"no":43,"schdep":"DSTN","fullname":"RAIPUR JN","day":1,"scharr":"17:30","distance":297,"lng":81.7787,"route":1,"code":"R","state":"Chattisgarh","lat":21.1797,"halt":0}],"starts":{"no":1,"schdep":"07:30","fullname":"ITWARI","day":1,"scharr":"SRC","distance":0,"lng":79.1165912,"route":1,"code":"ITR","state":"Maharashtra","lat":21.1710032,"halt":0}},{"id":"57316","days":[{"runs":"Y","day-code":"SUN"},{"runs":"Y","day-code":"MON"},{"runs":"Y","day-code":"TUE"},{"runs":"Y","day-code":"WED"},{"runs":"Y","day-code":"THU"},{"runs":"Y","day-code":"FRI"},{"runs":"Y","day-code":"SAT"}],"classes":[{"available":"-","class-code":"SL"},{"available":"-","class-code":"2S"},{"available":"-","class-code":"3A"},{"available":"-","class-code":"2A"},{"available":"-","class-code":"1A"},{"available":"-","class-code":"FC"},{"available":"-","class-code":"3E"},{"available":"-","class-code":"CC"}],"name":"NS GNT PASSENGER","route":[{"no":1,"schdep":"12:40","fullname":"NARASAPUR","day":1,"scharr":"SRC","distance":0,"lng":81.69915999999999,"route":1,"code":"NS","state":"Andhra Pradesh 534275","lat":16.446605,"halt":0},{"no":2,"schdep":"12:57","fullname":"PALAKOLLU","day":1,"scharr":"12:56","distance":8,"lng":81.71706619999999,"route":1,"code":"PKO","state":"Andhra Pradesh 534260","lat":16.5220568,"halt":1},{"no":3,"schdep":"13:02","fullname":"CHINTA PARRU HALT","day":1,"scharr":"13:01","distance":11,"lng":81.699536,"route":1,"code":"CTPR","state":"Andhra Pradesh 534250","lat":16.53419,"halt":1},{"no":4,"schdep":"13:06","fullname":"LANKALAKODERU","day":1,"scharr":"13:05","distance":14,"lng":81.680847,"route":1,"code":"LKDU","state":"Andhra Pradesh 534250","lat":16.5341122,"halt":1},{"no":5,"schdep":"13:13","fullname":"VIRAVASARAM","day":1,"scharr":"13:12","distance":18,"lng":81.63274849999999,"route":1,"code":"VVM","state":"Andhra Pradesh 534247","lat":16.5421411,"halt":1},{"no":6,"schdep":"13:19","fullname":"SRUNGAVRUKSHAM","day":1,"scharr":"13:18","distance":22,"lng":81.60243559999999,"route":1,"code":"SGKM","state":"Andhra Pradesh 534243","lat":16.5432961,"halt":1},{"no":7,"schdep":"13:24","fullname":"PENNADA AGRHRM","day":1,"scharr":"13:23","distance":24,"lng":81.5780675,"route":1,"code":"PAGM","state":"Andhra Pradesh 534243","lat":16.5419215,"halt":1},{"no":8,"schdep":"13:45","fullname":"BHIMAVARAM JN","day":1,"scharr":"13:40","distance":29,"lng":81.53716399999999,"route":1,"code":"BVRM","state":"Andhra Pradesh 534201","lat":16.544523,"halt":5},{"no":9,"schdep":"13:50","fullname":"BHIMAVARAM TOWN","day":1,"scharr":"13:49","distance":30,"lng":81.5192148,"route":1,"code":"BVRT","state":"Andhra Pradesh 534202","lat":16.5462624,"halt":1},{"no":10,"schdep":"14:05","fullname":"UNDI","day":1,"scharr":"14:04","distance":38,"lng":81.46469859999999,"route":1,"code":"UNDI","state":"Andhra Pradesh 534199","lat":16.5807507,"halt":1},{"no":11,"schdep":"14:16","fullname":"CHERUKUVADA","day":1,"scharr":"14:15","distance":42,"lng":81.4212361,"route":1,"code":"CKV","state":"Andhra Pradesh 534199","lat":16.5898889,"halt":1},{"no":12,"schdep":"14:23","fullname":"AKIVIDU","day":1,"scharr":"14:22","distance":48,"lng":81.369329,"route":1,"code":"AKVD","state":"Andhra Pradesh 534235","lat":16.5830163,"halt":1},{"no":13,"schdep":"14:34","fullname":"PALLEVADA","day":1,"scharr":"14:33","distance":57,"lng":81.2878274,"route":1,"code":"PLVA","state":"Andhra Pradesh 521340","lat":16.576406,"halt":1},{"no":14,"schdep":"14:44","fullname":"KAIKOLUR","day":1,"scharr":"14:43","distance":65,"lng":81.2179747,"route":1,"code":"KKLR","state":"Andhra Pradesh 521333","lat":16.5507627,"halt":1},{"no":15,"schdep":"14:55","fullname":"MANDAVALLI","day":1,"scharr":"14:54","distance":72,"lng":81.1610541,"route":1,"code":"MDVL","state":"Andhra Pradesh 521345","lat":16.5188879,"halt":1},{"no":16,"schdep":"15:02","fullname":"MOKHASA KALVPDI","day":1,"scharr":"15:01","distance":76,"lng":81.13147939999999,"route":1,"code":"MVP","state":"Andhra Pradesh 521345","lat":16.4961299,"halt":1},{"no":17,"schdep":"15:08","fullname":"PUTLACHERUVU","day":1,"scharr":"15:07","distance":78,"lng":81.1124103,"route":1,"code":"PCU","state":"Andhra Pradesh 521326","lat":16.4847628,"halt":1},{"no":18,"schdep":"15:14","fullname":"PASALAPUDI","day":1,"scharr":"15:13","distance":81,"lng":81.09488859999999,"route":1,"code":"PSLP","state":"Andhra Pradesh 521326","lat":16.4701332,"halt":1},{"no":19,"schdep":"15:19","fullname":"GUNTAKONDURU","day":1,"scharr":"15:18","distance":84,"lng":81.0770826,"route":1,"code":"GUK","state":"Andhra Pradesh 521326","lat":16.4566089,"halt":1},{"no":20,"schdep":"15:25","fullname":"MOTURU","day":1,"scharr":"15:24","distance":87,"lng":81.0520483,"route":1,"code":"OTR","state":"Andhra Pradesh 521323","lat":16.440611,"halt":1},{"no":21,"schdep":"16:25","fullname":"GUDIVADA JN","day":1,"scharr":"15:45","distance":94,"lng":80.9879279,"route":1,"code":"GDV","state":"Andhra Pradesh 521301","lat":16.4306582,"halt":40},{"no":22,"schdep":"16:36","fullname":"DOSAPADU","day":1,"scharr":"16:35","distance":101,"lng":80.9391765,"route":1,"code":"DPD","state":"Andhra Pradesh 521321","lat":16.4688884,"halt":1},{"no":23,"schdep":"16:42","fullname":"VENTRAPRAGADA","day":1,"scharr":"16:41","distance":103,"lng":80.9146817,"route":1,"code":"VPG","state":"Andhra Pradesh 521311","lat":16.4744335,"halt":1},{"no":24,"schdep":"16:48","fullname":"INDUPALLI","day":1,"scharr":"16:47","distance":108,"lng":80.87786059999999,"route":1,"code":"IDP","state":"Andhra Pradesh 521311","lat":16.4795738,"halt":1},{"no":25,"schdep":"16:55","fullname":"TARIGOPPULA","day":1,"scharr":"16:54","distance":112,"lng":80.8359624,"route":1,"code":"TGU","state":"Andhra Pradesh 521260","lat":16.4853498,"halt":1},{"no":26,"schdep":"17:01","fullname":"TENNERU","day":1,"scharr":"17:00","distance":114,"lng":80.8160217,"route":1,"code":"TNRU","state":"Andhra Pradesh 521260","lat":16.4880734,"halt":1},{"no":27,"schdep":"17:07","fullname":"UPPALUR","day":1,"scharr":"17:06","distance":118,"lng":80.7811028,"route":1,"code":"UPL","state":"Andhra Pradesh 521151","lat":16.492959,"halt":1},{"no":28,"schdep":"17:15","fullname":"NIDAMANURU","day":1,"scharr":"17:14","distance":124,"lng":80.7317059,"route":1,"code":"NDM","state":"Andhra Pradesh 521104","lat":16.5070369,"halt":1},{"no":29,"schdep":"17:23","fullname":"RAMAVARAPPADU","day":1,"scharr":"17:22","distance":130,"lng":80.6797655,"route":1,"code":"RMV","state":"Andhra Pradesh 521107","lat":16.5259989,"halt":1},{"no":30,"schdep":"17:32","fullname":"MADHRANAGAR","day":1,"scharr":"17:31","distance":133,"lng":80.6486489,"route":1,"code":"MDUN","state":"Andhra Pradesh 520004","lat":16.5254216,"halt":1},{"no":31,"schdep":"18:10","fullname":"VIJAYAWADA JN","day":1,"scharr":"17:55","distance":135,"lng":80.61945089999999,"route":1,"code":"BZA","state":"Andhra Pradesh 520001","lat":16.5184188,"halt":15},{"no":32,"schdep":"18:24","fullname":"KRISHNA CANAL","day":1,"scharr":"18:23","distance":140,"lng":80.60566999999999,"route":1,"code":"KCC","state":"Andhra Pradesh 522501","lat":16.477002,"halt":1},{"no":33,"schdep":"18:35","fullname":"MANGALAGIRI","day":1,"scharr":"18:34","distance":147,"lng":80.56432989999999,"route":1,"code":"MAG","state":"Andhra Pradesh 522503","lat":16.4378222,"halt":1},{"no":34,"schdep":"18:47","fullname":"NAMBURU","day":1,"scharr":"18:46","distance":158,"lng":80.4957376,"route":1,"code":"NBR","state":"Andhra Pradesh 522508","lat":16.3584305,"halt":1},{"no":35,"schdep":"18:54","fullname":"PEDAKAKANI HALT","day":1,"scharr":"18:53","distance":161,"lng":80.4864407,"route":1,"code":"PDKN","state":"Andhra Pradesh 522509","lat":16.3436965,"halt":1},{"no":36,"schdep":"DSTN","fullname":"GUNTUR JN","day":1,"scharr":"19:20","distance":168,"lng":80.44273659999999,"route":1,"code":"GNT","state":"Andhra Pradesh 522002","lat":16.3005246,"halt":0}],"starts":{"no":1,"schdep":"12:40","fullname":"NARASAPUR","day":1,"scharr":"SRC","distance":0,"lng":81.69915999999999,"route":1,"code":"NS","state":"Andhra Pradesh 534275","lat":16.446605,"halt":0}},{"id":"57136","days":[{"runs":"Y","day-code":"SUN"},{"runs":"Y","day-code":"MON"},{"runs":"Y","day-code":"TUE"},{"runs":"Y","day-code":"WED"},{"runs":"Y","day-code":"THU"},{"runs":"Y","day-code":"FRI"},{"runs":"Y","day-code":"SAT"}],"classes":[{"available":"-","class-code":"SL"},{"available":"-","class-code":"2S"},{"available":"-","class-code":"3A"},{"available":"-","class-code":"2A"},{"available":"-","class-code":"1A"},{"available":"-","class-code":"FC"},{"available":"-","class-code":"3E"},{"available":"-","class-code":"CC"}],"name":"KZJ AJNI PASSENGER","route":[{"no":1,"schdep":"21:15","fullname":"KAZIPET JN","day":1,"scharr":"SRC","distance":0,"lng":79.3920888,"route":1,"code":"KZJ","state":"Telangana 505172","lat":18.6137119,"halt":0},{"no":2,"schdep":"21:30","fullname":"HASANPARTI ROAD","day":1,"scharr":"21:29","distance":21,"lng":79.5022838,"route":1,"code":"HSP","state":"Telangana 506371","lat":18.0779632,"halt":1},{"no":3,"schdep":"21:40","fullname":"UPPAL","day":1,"scharr":"21:39","distance":33,"lng":79.48194749999999,"route":1,"code":"OPL","state":"Telangana 505101","lat":18.1824684,"halt":1},{"no":4,"schdep":"21:50","fullname":"JAMIKUNTA","day":1,"scharr":"21:49","distance":45,"lng":79.4768922,"route":1,"code":"JMKT","state":"Telangana 505122","lat":18.2898277,"halt":1},{"no":5,"schdep":"21:55","fullname":"BISUGIRSHARIF","day":1,"scharr":"21:54","distance":51,"lng":79.4832196,"route":1,"code":"BGSF","state":"Telangana 505475","lat":18.3476573,"halt":1},{"no":6,"schdep":"22:05","fullname":"POTKAPALLI","day":1,"scharr":"22:04","distance":62,"lng":79.464122,"route":1,"code":"PTKP","state":"Telangana 505152","lat":18.42853,"halt":1},{"no":7,"schdep":"22:10","fullname":"ODELA","day":1,"scharr":"22:09","distance":65,"lng":79.449463,"route":1,"code":"OEA","state":"Telangana 505152","lat":18.455905,"halt":1},{"no":8,"schdep":"22:20","fullname":"KOLNUR","day":1,"scharr":"22:19","distance":71,"lng":79.4190392,"route":1,"code":"KOLR","state":"Telangana 505162","lat":18.496435,"halt":1},{"no":9,"schdep":"22:25","fullname":"KOTTAPALLI","day":1,"scharr":"22:22","distance":76,"lng":79.4034796,"route":1,"code":"KYOP","state":"Telangana 505162","lat":18.5397638,"halt":3},{"no":10,"schdep":"22:35","fullname":"PEDDAPALLI","day":1,"scharr":"22:34","distance":84,"lng":79.3920888,"route":1,"code":"PDPL","state":"Telangana 505172","lat":18.6137119,"halt":1},{"no":11,"schdep":"22:45","fullname":"RAGHAVAPURAM","day":1,"scharr":"22:44","distance":92,"lng":79.4111313,"route":1,"code":"RGPM","state":"Telangana 505172","lat":18.680972,"halt":1},{"no":12,"schdep":"23:00","fullname":"RAMGUNDAM","day":1,"scharr":"22:59","distance":102,"lng":79.4348739,"route":1,"code":"RDM","state":"Telangana 505208","lat":18.7638647,"halt":0},{"no":13,"schdep":"23:10","fullname":"PEDDEMPET","day":1,"scharr":"23:09","distance":106,"lng":79.42725779999999,"route":1,"code":"PPZ","state":"Telangana 505208","lat":18.8031306,"halt":1},{"no":14,"schdep":"23:20","fullname":"MANCHERAL","day":1,"scharr":"23:19","distance":115,"lng":79.44782649999999,"route":1,"code":"MCI","state":"Telangana","lat":18.875679,"halt":1},{"no":15,"schdep":"23:30","fullname":"RAVINDRAKHANI","day":1,"scharr":"23:29","distance":122,"lng":79.46168689999999,"route":1,"code":"RVKH","state":"Telangana 504301","lat":18.9367058,"halt":1},{"no":16,"schdep":"23:40","fullname":"MANDAMARI","day":1,"scharr":"23:39","distance":126,"lng":79.4700369,"route":1,"code":"MMZ","state":"Telangana 504231","lat":18.9697325,"halt":1},{"no":17,"schdep":"00:05","fullname":"BELAMPALLI","day":2,"scharr":"00:04","distance":135,"lng":79.4862074,"route":1,"code":"BPA","state":"Telangana 504251","lat":19.0528255,"halt":0},{"no":18,"schdep":"00:15","fullname":"RECHNI ROAD","day":2,"scharr":"00:14","distance":145,"lng":79.4516364,"route":1,"code":"RECH","state":"Telangana 504272","lat":19.1407082,"halt":0},{"no":19,"schdep":"00:25","fullname":"ASIFABAD ROAD","day":2,"scharr":"00:24","distance":159,"lng":79.41661169999999,"route":1,"code":"ASAF","state":"Telangana 504292","lat":19.2571392,"halt":0},{"no":20,"schdep":"00:55","fullname":"SIRPUR KAGAZNGR","day":2,"scharr":"00:50","distance":174,"lng":79.48999189999999,"route":1,"code":"SKZR","state":"Telangana 504296","lat":19.3465676,"halt":0},{"no":21,"schdep":"01:20","fullname":"SIRPUR TOWN","day":2,"scharr":"01:19","distance":191,"lng":79.5606993,"route":1,"code":"SRUR","state":"Telangana 504299","lat":19.4788121,"halt":1},{"no":22,"schdep":"01:30","fullname":"MAKUDI","day":2,"scharr":"01:29","distance":203,"lng":79.47920409999999,"route":1,"code":"MKDI","state":"Maharashtra 442905","lat":19.5375498,"halt":1},{"no":23,"schdep":"01:40","fullname":"WIRUR","day":2,"scharr":"01:39","distance":216,"lng":79.4310052,"route":1,"code":"WIRR","state":"Maharashtra 442905","lat":19.6431964,"halt":1},{"no":24,"schdep":"02:00","fullname":"WIHIRGAON","day":2,"scharr":"01:59","distance":225,"lng":79.4411784,"route":1,"code":"VHGN","state":"Maharashtra 442905","lat":19.7253978,"halt":0},{"no":25,"schdep":"02:30","fullname":"MANIKGARH","day":2,"scharr":"02:29","distance":234,"lng":79.3984938,"route":1,"code":"MAGH","state":"Maharashtra 442905","lat":19.7876982,"halt":1},{"no":26,"schdep":"04:00","fullname":"BALHARSHAH","day":2,"scharr":"03:40","distance":243,"lng":79.34887499999999,"route":1,"code":"BPQ","state":"Maharashtra 442901","lat":19.8509942,"halt":0},{"no":27,"schdep":"04:16","fullname":"BABUPETH","day":2,"scharr":"04:15","distance":252,"lng":79.31293869999999,"route":1,"code":"BUPH","state":"Maharashtra 442403","lat":19.9209465,"halt":1},{"no":28,"schdep":"04:24","fullname":"CHANDRAPUR","day":2,"scharr":"04:23","distance":257,"lng":88.54282339999999,"route":1,"code":"CD","state":"West Bengal 743248","lat":22.7654709,"halt":1},{"no":29,"schdep":"04:48","fullname":"TADALI","day":2,"scharr":"04:47","distance":272,"lng":79.18738909999999,"route":1,"code":"TAE","state":"Maharashtra 442406","lat":20.0348521,"halt":1},{"no":30,"schdep":"05:00","fullname":"BHANDAK","day":2,"scharr":"04:59","distance":281,"lng":79.1130428,"route":1,"code":"BUX","state":"Maharashtra 442902","lat":20.0847138,"halt":0},{"no":31,"schdep":"05:10","fullname":"MAJRI JN","day":2,"scharr":"05:09","distance":291,"lng":79.0431414,"route":1,"code":"MJRI","state":"Maharashtra 442503","lat":20.1391212,"halt":1},{"no":32,"schdep":"05:25","fullname":"WARORA","day":2,"scharr":"05:24","distance":303,"lng":79.01029129999999,"route":1,"code":"WRR","state":"Maharashtra 442907","lat":20.2446657,"halt":1},{"no":33,"schdep":"05:35","fullname":"CHIKNI ROAD","day":2,"scharr":"05:34","distance":314,"lng":84.8411101,"route":1,"code":"CKNI","state":"Bihar 845305","lat":26.9881203,"halt":1},{"no":34,"schdep":"06:10","fullname":"HINGANGHAT","day":2,"scharr":"06:09","distance":341,"lng":78.8336473,"route":1,"code":"HGT","state":"Maharashtra 442301","lat":20.5421328,"halt":1},{"no":35,"schdep":"06:20","fullname":"WAGHOLI","day":2,"scharr":"06:19","distance":350,"lng":78.772097,"route":1,"code":"WG","state":"Maharashtra 442304","lat":20.58218,"halt":1},{"no":36,"schdep":"06:30","fullname":"SONEGAON","day":2,"scharr":"06:29","distance":358,"lng":78.70944420000001,"route":1,"code":"SNN","state":"Maharashtra 442102","lat":20.629136,"halt":1},{"no":37,"schdep":"06:40","fullname":"BHUGAON","day":2,"scharr":"06:39","distance":365,"lng":78.6698127,"route":1,"code":"BPK","state":"Maharashtra 442001","lat":20.6736292,"halt":1},{"no":38,"schdep":"06:50","fullname":"CHITODA","day":2,"scharr":"06:49","distance":372,"lng":78.623558,"route":1,"code":"CHJC","state":"Maharashtra 442001","lat":20.7156223,"halt":1},{"no":39,"schdep":"07:00","fullname":"SEVAGRAM","day":2,"scharr":"06:58","distance":378,"lng":78.61874999999999,"route":1,"code":"SEGM","state":"Maharashtra 442001","lat":20.7389676,"halt":0},{"no":40,"schdep":"07:07","fullname":"VARUD","day":2,"scharr":"07:03","distance":383,"lng":78.6511767,"route":1,"code":"VADR","state":"Maharashtra 442003","lat":20.7468567,"halt":4},{"no":41,"schdep":"07:15","fullname":"SELOO ROAD","day":2,"scharr":"07:14","distance":390,"lng":76.4429273,"route":1,"code":"SLOR","state":"Maharashtra 431503","lat":19.4501948,"halt":1},{"no":42,"schdep":"07:30","fullname":"TULJAPUR","day":2,"scharr":"07:29","distance":400,"lng":78.8082656,"route":1,"code":"TGP","state":"Maharashtra 442104","lat":20.8005257,"halt":1},{"no":43,"schdep":"07:55","fullname":"SINDI","day":2,"scharr":"07:54","distance":408,"lng":78.8830684,"route":1,"code":"SNI","state":"Maharashtra 442105","lat":20.8156635,"halt":1},{"no":44,"schdep":"08:05","fullname":"BORKHEDI","day":2,"scharr":"08:04","distance":419,"lng":78.97486769999999,"route":1,"code":"BOK","state":"Maharashtra 441108","lat":20.8606297,"halt":1},{"no":45,"schdep":"08:20","fullname":"BUTI BORI","day":2,"scharr":"08:19","distance":427,"lng":79.01336069999999,"route":1,"code":"BTBR","state":"Maharashtra 441108","lat":20.9184377,"halt":1},{"no":46,"schdep":"08:30","fullname":"GUMGAON","day":2,"scharr":"08:29","distance":436,"lng":79.03009209999999,"route":1,"code":"GMG","state":"Maharashtra 441108","lat":20.9937786,"halt":1},{"no":47,"schdep":"08:40","fullname":"KHAPTI","day":2,"scharr":"08:39","distance":442,"lng":79.0486289,"route":1,"code":"KRI","state":"Maharashtra 441108","lat":21.0499687,"halt":1},{"no":48,"schdep":"DSTN","fullname":"AJNI","day":2,"scharr":"11:25","distance":452,"lng":79.0831292,"route":1,"code":"AJNI","state":"Maharashtra 440012","lat":21.1277078,"halt":0}],"starts":{"no":1,"schdep":"21:15","fullname":"KAZIPET JN","day":1,"scharr":"SRC","distance":0,"lng":79.3920888,"route":1,"code":"KZJ","state":"Telangana 505172","lat":18.6137119,"halt":0}},{"id":"58014","days":[{"runs":"Y","day-code":"SUN"},{"runs":"Y","day-code":"MON"},{"runs":"Y","day-code":"TUE"},{"runs":"Y","day-code":"WED"},{"runs":"Y","day-code":"THU"},{"runs":"Y","day-code":"FRI"},{"runs":"Y","day-code":"SAT"}],"classes":[{"available":"-","class-code":"SL"},{"available":"-","class-code":"2S"},{"available":"-","class-code":"3A"},{"available":"-","class-code":"2A"},{"available":"-","class-code":"1A"},{"available":"-","class-code":"FC"},{"available":"-","class-code":"3E"},{"available":"-","class-code":"CC"}],"name":"BKSC HWH PASSENGER","route":[{"no":1,"schdep":"18:35","fullname":"BOKARO STL CITY","day":1,"scharr":"SRC","distance":0,"lng":86.0840558,"route":1,"code":"BKSC","state":"Jharkhand 827010","lat":23.6581061,"halt":0},{"no":2,"schdep":"18:43","fullname":"TUPKADIH","day":1,"scharr":"18:42","distance":6,"lng":86.06395479999999,"route":1,"code":"TKB","state":"Jharkhand 827014","lat":23.7135979,"halt":1},{"no":3,"schdep":"19:04","fullname":"CHANDRAPURA","day":1,"scharr":"19:02","distance":15,"lng":86.11969769999999,"route":1,"code":"CRP","state":"Jharkhand 828403","lat":23.7555216,"halt":2},{"no":4,"schdep":"19:12","fullname":"JANUNIATNA","day":1,"scharr":"19:11","distance":22,"lng":86.19222340000002,"route":1,"code":"JNN","state":"Jharkhand 828307","lat":23.7548111,"halt":1},{"no":5,"schdep":"19:40","fullname":"MAHUDA","day":1,"scharr":"19:38","distance":30,"lng":72.9435056,"route":1,"code":"MHQ","state":"Gujarat 387335","lat":22.8132378,"halt":2},{"no":6,"schdep":"19:54","fullname":"TALGARIA","day":1,"scharr":"19:53","distance":40,"lng":86.33527099999999,"route":1,"code":"TLE","state":"Jharkhand 828129","lat":23.6816153,"halt":1},{"no":7,"schdep":"20:02","fullname":"SBEWBABUDIH","day":1,"scharr":"20:01","distance":47,"lng":86.3909805,"route":1,"code":"SBW","state":"Jharkhand 828303","lat":23.6596194,"halt":1},{"no":8,"schdep":"20:15","fullname":"BHOJUDIH JN","day":1,"scharr":"20:13","distance":53,"lng":86.44687929999999,"route":1,"code":"BJE","state":"Jharkhand 828303","lat":23.642055,"halt":2},